{"type": "FeatureCollection", "features": [{"id": "6", "type": "Feature", "properties": {"Attraction": "Tourism/Cultural", "code": 2742, "fclass": "viewpoint", "geo_code": "27", "name": null, "osm_id": "161117959"}, "geometry": {"type": "Point", "coordinates": [-93.677952, 42.015106]}}, {"id": "5021", "type": "Feature", "properties": {"Attraction": "Tourism/Cultural", "code": 2722, "fclass": "museum", "geo_code": "27", "name": "Brunnier Art Museum", "osm_id": "367089331"}, "geometry": {"type": "Point", "coordinates": [-93.6362991, 42.0214767]}}, {"id": "8998", "type": "Feature", "properties": {"Attraction": "Tourism/Cultural", "code": 2741, "fclass": "picnic_site", "geo_code": "27", "name": null, "osm_id": "2421400525"}, "geometry": {"type": "Point", "coordinates": [-93.5686742, 42.0960426]}}, {"id": "9021", "type": "Feature", "properties": {"Attraction": "Tourism/Cultural", "code": 2725, "fclass": "artwork", "geo_code": "27", "name": "Carom", "osm_id": "2425008112"}, "geometry": {"type": "Point", "coordinates": [-93.65048, 42.0258561]}}, {"id": "9022", "type": "Feature", "properties": {"Attraction": "Tourism/Cultural", "code": 2725, "fclass": "artwork", "geo_code": "27", "name": "Sequence", "osm_id": "2425008122"}, "geometry": {"type": "Point", "coordinates": [-93.6525128, 42.0282224]}}, {"id": "9023", "type": "Feature", "properties": {"Attraction": "Tourism/Cultural", "code": 2725, "fclass": "artwork", "geo_code": "27", "name": "The Moth", "osm_id": "2425008164"}, "geometry": {"type": "Point", "coordinates": [-93.6516473, 42.0283987]}}, {"id": "9242", "type": "Feature", "properties": {"Attraction": "Tourism/Cultural", "code": 2725, "fclass": "artwork", "geo_code": "27", "name": "Inuksuk", "osm_id": "2514249954"}, "geometry": {"type": "Point", "coordinates": [-93.6297258, 42.0289468]}}, {"id": "9243", "type": "Feature", "properties": {"Attraction": "Tourism/Cultural", "code": 2725, "fclass": "artwork", "geo_code": "27", "name": "Inuksuk", "osm_id": "2514249955"}, "geometry": {"type": "Point", "coordinates": [-93.6269515, 42.0692586]}}, {"id": "9263", "type": "Feature", "properties": {"Attraction": "Tourism/Cultural", "code": 2725, "fclass": "artwork", "geo_code": "27", "name": "Inuksuk", "osm_id": "2522550660"}, "geometry": {"type": "Point", "coordinates": [-93.6633541, 42.0314442]}}, {"id": "9264", "type": "Feature", "properties": {"Attraction": "Tourism/Cultural", "code": 2724, "fclass": "memorial", "geo_code": "27", "name": "Medicine Wheel", "osm_id": "2523376886"}, "geometry": {"type": "Point", "coordinates": [-93.6378487, 42.0714514]}}, {"id": "9324", "type": "Feature", "properties": {"Attraction": "Tourism/Cultural", "code": 2724, "fclass": "memorial", "geo_code": "27", "name": "Skunk River Overlook", "osm_id": "2534135186"}, "geometry": {"type": "Point", "coordinates": [-93.631868, 42.0744219]}}, {"id": "9325", "type": "Feature", "properties": {"Attraction": "Tourism/Cultural", "code": 2724, "fclass": "memorial", "geo_code": "27", "name": "Plains Overlook", "osm_id": "2534135187"}, "geometry": {"type": "Point", "coordinates": [-93.638363, 42.071437]}}, {"id": "9326", "type": "Feature", "properties": {"Attraction": "Tourism/Cultural", "code": 2724, "fclass": "memorial", "geo_code": "27", "name": "Stuart Smith Park Trees Rock", "osm_id": "2534135188"}, "geometry": {"type": "Point", "coordinates": [-93.630878, 42.0168982]}}, {"id": "9327", "type": "Feature", "properties": {"Attraction": "Tourism/Cultural", "code": 2724, "fclass": "memorial", "geo_code": "27", "name": "Audubon Trail Restoration 2012 Rock", "osm_id": "2534230586"}, "geometry": {"type": "Point", "coordinates": [-93.6297385, 42.0308943]}}, {"id": "9332", "type": "Feature", "properties": {"Attraction": "Tourism/Cultural", "code": 2724, "fclass": "memorial", "geo_code": "27", "name": "John F Lacey Rock", "osm_id": "2540010152"}, "geometry": {"type": "Point", "coordinates": [-93.629789, 42.0726725]}}, {"id": "9333", "type": "Feature", "properties": {"Attraction": "Tourism/Cultural", "code": 2724, "fclass": "memorial", "geo_code": "27", "name": "Louis H. Pammel Rock", "osm_id": "2540010153"}, "geometry": {"type": "Point", "coordinates": [-93.6365294, 42.0666462]}}, {"id": "9334", "type": "Feature", "properties": {"Attraction": "Tourism/Cultural", "code": 2724, "fclass": "memorial", "geo_code": "27", "name": "Paul Errington Rock", "osm_id": "2540010154"}, "geometry": {"type": "Point", "coordinates": [-93.6337109, 42.0663838]}}, {"id": "9335", "type": "Feature", "properties": {"Attraction": "Tourism/Cultural", "code": 2724, "fclass": "memorial", "geo_code": "27", "name": "Ada Hayden Rock", "osm_id": "2540010155"}, "geometry": {"type": "Point", "coordinates": [-93.6261645, 42.0724914]}}, {"id": "9336", "type": "Feature", "properties": {"Attraction": "Tourism/Cultural", "code": 2724, "fclass": "memorial", "geo_code": "27", "name": "Bohumil Shimek Rock", "osm_id": "2540010156"}, "geometry": {"type": "Point", "coordinates": [-93.6273795, 42.0680392]}}, {"id": "9337", "type": "Feature", "properties": {"Attraction": "Tourism/Cultural", "code": 2724, "fclass": "memorial", "geo_code": "27", "name": "Aldo Leopold Rock", "osm_id": "2540010160"}, "geometry": {"type": "Point", "coordinates": [-93.623515, 42.0680394]}}, {"id": "9338", "type": "Feature", "properties": {"Attraction": "Tourism/Cultural", "code": 2724, "fclass": "memorial", "geo_code": "27", "name": "Jay Norwood Ding Darling Rock", "osm_id": "2540010162"}, "geometry": {"type": "Point", "coordinates": [-93.6331819, 42.0641331]}}, {"id": "9339", "type": "Feature", "properties": {"Attraction": "Tourism/Cultural", "code": 2724, "fclass": "memorial", "geo_code": "27", "name": "Sylvan Runkel Rock", "osm_id": "2540010163"}, "geometry": {"type": "Point", "coordinates": [-93.6313302, 42.0637422]}}, {"id": "9340", "type": "Feature", "properties": {"Attraction": "Tourism/Cultural", "code": 2724, "fclass": "memorial", "geo_code": "27", "name": "John Madson Rock", "osm_id": "2540010164"}, "geometry": {"type": "Point", "coordinates": [-93.6247548, 42.0621907]}}, {"id": "9518", "type": "Feature", "properties": {"Attraction": "Tourism/Cultural", "code": 2725, "fclass": "artwork", "geo_code": "27", "name": "Jester", "osm_id": "2624861626"}, "geometry": {"type": "Point", "coordinates": [-93.6118201, 42.0299253]}}, {"id": "9532", "type": "Feature", "properties": {"Attraction": "Tourism/Cultural", "code": 2725, "fclass": "artwork", "geo_code": "27", "name": "Dire Enticement", "osm_id": "2640186251"}, "geometry": {"type": "Point", "coordinates": [-93.6108562, 42.0353521]}}, {"id": "9533", "type": "Feature", "properties": {"Attraction": "Tourism/Cultural", "code": 2725, "fclass": "artwork", "geo_code": "27", "name": "Bird", "osm_id": "2640186252"}, "geometry": {"type": "Point", "coordinates": [-93.6122776, 42.0314169]}}, {"id": "9534", "type": "Feature", "properties": {"Attraction": "Tourism/Cultural", "code": 2725, "fclass": "artwork", "geo_code": "27", "name": "Handprint Table", "osm_id": "2640186253"}, "geometry": {"type": "Point", "coordinates": [-93.6228296, 42.0303212]}}, {"id": "9535", "type": "Feature", "properties": {"Attraction": "Tourism/Cultural", "code": 2725, "fclass": "artwork", "geo_code": "27", "name": "Firetruck", "osm_id": "2640190730"}, "geometry": {"type": "Point", "coordinates": [-93.6306603, 42.030344]}}, {"id": "9536", "type": "Feature", "properties": {"Attraction": "Tourism/Cultural", "code": 2725, "fclass": "artwork", "geo_code": "27", "name": "Butterfly", "osm_id": "2640190731"}, "geometry": {"type": "Point", "coordinates": [-93.6315722, 42.0170864]}}, {"id": "9538", "type": "Feature", "properties": {"Attraction": "Tourism/Cultural", "code": 2725, "fclass": "artwork", "geo_code": "27", "name": "Rising Wave", "osm_id": "2640945253"}, "geometry": {"type": "Point", "coordinates": [-93.6321801, 42.035591]}}, {"id": "9539", "type": "Feature", "properties": {"Attraction": "Tourism/Cultural", "code": 2725, "fclass": "artwork", "geo_code": "27", "name": "Window on a Blue Garden", "osm_id": "2640945258"}, "geometry": {"type": "Point", "coordinates": [-93.6790718, 42.0281319]}}, {"id": "9558", "type": "Feature", "properties": {"Attraction": "Tourism/Cultural", "code": 2724, "fclass": "memorial", "geo_code": "27", "name": "Veterans Memorial", "osm_id": "2657779049"}, "geometry": {"type": "Point", "coordinates": [-93.6199141, 42.0259845]}}, {"id": "9580", "type": "Feature", "properties": {"Attraction": "Tourism/Cultural", "code": 2724, "fclass": "memorial", "geo_code": "27", "name": "Site of First House Built in West Ames", "osm_id": "2670212897"}, "geometry": {"type": "Point", "coordinates": [-93.6540953, 42.0226092]}}, {"id": "9581", "type": "Feature", "properties": {"Attraction": "Tourism/Cultural", "code": 2724, "fclass": "memorial", "geo_code": "27", "name": "Site of First Home in Ames", "osm_id": "2670212898"}, "geometry": {"type": "Point", "coordinates": [-93.6119681, 42.0260533]}}, {"id": "9597", "type": "Feature", "properties": {"Attraction": "Tourism/Cultural", "code": 2725, "fclass": "artwork", "geo_code": "27", "name": "Woman's Head", "osm_id": "2679290698"}, "geometry": {"type": "Point", "coordinates": [-93.6204774, 42.022647]}}, {"id": "9632", "type": "Feature", "properties": {"Attraction": "Tourism/Cultural", "code": 2724, "fclass": "memorial", "geo_code": "27", "name": "Ben J. Cole Rock", "osm_id": "2710835732"}, "geometry": {"type": "Point", "coordinates": [-93.6204258, 42.0255241]}}, {"id": "9687", "type": "Feature", "properties": {"Attraction": "Tourism/Cultural", "code": 2724, "fclass": "memorial", "geo_code": "27", "name": "Stuart Smith Park Garden Rock", "osm_id": "2735393448"}, "geometry": {"type": "Point", "coordinates": [-93.630943, 42.0169776]}}, {"id": "9740", "type": "Feature", "properties": {"Attraction": "Tourism/Cultural", "code": 2725, "fclass": "artwork", "geo_code": "27", "name": "Skate Park Mosaic", "osm_id": "2765481348"}, "geometry": {"type": "Point", "coordinates": [-93.6303138, 42.0283244]}}, {"id": "9742", "type": "Feature", "properties": {"Attraction": "Tourism/Cultural", "code": 2724, "fclass": "memorial", "geo_code": "27", "name": "Raymond and Gertrude Daley Memorial Rock", "osm_id": "2767230813"}, "geometry": {"type": "Point", "coordinates": [-93.6903985, 42.0194644]}}, {"id": "9743", "type": "Feature", "properties": {"Attraction": "Tourism/Cultural", "code": 2724, "fclass": "memorial", "geo_code": "27", "name": "Helen Daley Smith Memorial Rock", "osm_id": "2767230820"}, "geometry": {"type": "Point", "coordinates": [-93.6905533, 42.0195153]}}, {"id": "9744", "type": "Feature", "properties": {"Attraction": "Tourism/Cultural", "code": 2724, "fclass": "memorial", "geo_code": "27", "name": "Robert Paul Daley Pathway Rock", "osm_id": "2767230826"}, "geometry": {"type": "Point", "coordinates": [-93.6910509, 42.0197373]}}, {"id": "9770", "type": "Feature", "properties": {"Attraction": "Tourism/Cultural", "code": 2724, "fclass": "memorial", "geo_code": "27", "name": "Billy Sunday Birthplace Rock", "osm_id": "2780234117"}, "geometry": {"type": "Point", "coordinates": [-93.6023125, 42.0044056]}}, {"id": "9778", "type": "Feature", "properties": {"Attraction": "Tourism/Cultural", "code": 2724, "fclass": "memorial", "geo_code": "27", "name": "H.L. Munn Memorial", "osm_id": "2798814395"}, "geometry": {"type": "Point", "coordinates": [-93.6098358, 42.0257344]}}, {"id": "9779", "type": "Feature", "properties": {"Attraction": "Tourism/Cultural", "code": 2724, "fclass": "memorial", "geo_code": "27", "name": "Ames Circle of Arts", "osm_id": "2798814396"}, "geometry": {"type": "Point", "coordinates": [-93.610049, 42.0266591]}}, {"id": "9780", "type": "Feature", "properties": {"Attraction": "Tourism/Cultural", "code": 2724, "fclass": "memorial", "geo_code": "27", "name": "David A. Dobell Memorial", "osm_id": "2798814397"}, "geometry": {"type": "Point", "coordinates": [-93.6097227, 42.0267016]}}, {"id": "9832", "type": "Feature", "properties": {"Attraction": "Tourism/Cultural", "code": 2724, "fclass": "memorial", "geo_code": "27", "name": "Durham Bandshell Memorial", "osm_id": "2831763810"}, "geometry": {"type": "Point", "coordinates": [-93.6098286, 42.0267384]}}, {"id": "9982", "type": "Feature", "properties": {"Attraction": "Tourism/Cultural", "code": 2724, "fclass": "memorial", "geo_code": "27", "name": "Inis Grove Park Rock", "osm_id": "2952505047"}, "geometry": {"type": "Point", "coordinates": [-93.6110078, 42.0480751]}}, {"id": "10030", "type": "Feature", "properties": {"Attraction": "Tourism/Cultural", "code": 2724, "fclass": "memorial", "geo_code": "27", "name": "Phi Kappa Phi Rock", "osm_id": "2962596208"}, "geometry": {"type": "Point", "coordinates": [-93.6364741, 42.0217985]}}, {"id": "10035", "type": "Feature", "properties": {"Attraction": "Tourism/Cultural", "code": 2724, "fclass": "memorial", "geo_code": "27", "name": "Emma McCarthy Lee Memorial Park Rock", "osm_id": "2968883414"}, "geometry": {"type": "Point", "coordinates": [-93.6629322, 42.0304692]}}, {"id": "10072", "type": "Feature", "properties": {"Attraction": "Tourism/Cultural", "code": 2724, "fclass": "memorial", "geo_code": "27", "name": "O'Neil Park Rock", "osm_id": "3003585765"}, "geometry": {"type": "Point", "coordinates": [-93.6241648, 42.020292]}}, {"id": "10147", "type": "Feature", "properties": {"Attraction": "Tourism/Cultural", "code": 2725, "fclass": "artwork", "geo_code": "27", "name": "Richard Morgen Flowers", "osm_id": "3016800260"}, "geometry": {"type": "Point", "coordinates": [-93.6120076, 42.0299227]}}, {"id": "12519", "type": "Feature", "properties": {"Attraction": "Tourism/Cultural", "code": 2724, "fclass": "memorial", "geo_code": "27", "name": null, "osm_id": "4782122721"}, "geometry": {"type": "Point", "coordinates": [-93.6060655, 42.0301643]}}, {"id": "12676", "type": "Feature", "properties": {"Attraction": "Tourism/Cultural", "code": 2725, "fclass": "artwork", "geo_code": "27", "name": null, "osm_id": "4873133621"}, "geometry": {"type": "Point", "coordinates": [-93.6403655, 42.0248152]}}, {"id": "12847", "type": "Feature", "properties": {"Attraction": "Tourism/Cultural", "code": 2742, "fclass": "viewpoint", "geo_code": "27", "name": "Three Crosses of Calvary", "osm_id": "5135540627"}, "geometry": {"type": "Point", "coordinates": [-93.6467415, 42.054609]}}, {"id": "15441", "type": "Feature", "properties": {"Attraction": "Tourism/Cultural", "code": 2725, "fclass": "artwork", "geo_code": "27", "name": "Jack Trice", "osm_id": "7838389354"}, "geometry": {"type": "Point", "coordinates": [-93.6485833, 42.0266222]}}, {"id": "15481", "type": "Feature", "properties": {"Attraction": "Tourism/Cultural", "code": 2725, "fclass": "artwork", "geo_code": "27", "name": "Border Crossing", "osm_id": "7885372343"}, "geometry": {"type": "Point", "coordinates": [-93.646957, 42.0274743]}}, {"id": "15482", "type": "Feature", "properties": {"Attraction": "Tourism/Cultural", "code": 2725, "fclass": "artwork", "geo_code": "27", "name": "Panthers", "osm_id": "7885372344"}, "geometry": {"type": "Point", "coordinates": [-93.6475376, 42.0272318]}}, {"id": "15483", "type": "Feature", "properties": {"Attraction": "Tourism/Cultural", "code": 2725, "fclass": "artwork", "geo_code": "27", "name": "Forward", "osm_id": "7885372345"}, "geometry": {"type": "Point", "coordinates": [-93.647715, 42.0276728]}}, {"id": "15484", "type": "Feature", "properties": {"Attraction": "Tourism/Cultural", "code": 2725, "fclass": "artwork", "geo_code": "27", "name": "Left-Sided Angel", "osm_id": "7885372346"}, "geometry": {"type": "Point", "coordinates": [-93.6486964, 42.027691]}}, {"id": "15485", "type": "Feature", "properties": {"Attraction": "Tourism/Cultural", "code": 2725, "fclass": "artwork", "geo_code": "27", "name": "Air Spiral", "osm_id": "7885372347"}, "geometry": {"type": "Point", "coordinates": [-93.65017, 42.025458]}}, {"id": "15486", "type": "Feature", "properties": {"Attraction": "Tourism/Cultural", "code": 2725, "fclass": "artwork", "geo_code": "27", "name": "Three Athletes", "osm_id": "7885372348"}, "geometry": {"type": "Point", "coordinates": [-93.652949, 42.0252449]}}, {"id": "15487", "type": "Feature", "properties": {"Attraction": "Tourism/Cultural", "code": 2725, "fclass": "artwork", "geo_code": "27", "name": "Bighorn Sheep", "osm_id": "7885372349"}, "geometry": {"type": "Point", "coordinates": [-93.6479888, 42.0269858]}}, {"id": "15488", "type": "Feature", "properties": {"Attraction": "Tourism/Cultural", "code": 2725, "fclass": "artwork", "geo_code": "27", "name": "Solo", "osm_id": "7885372350"}, "geometry": {"type": "Point", "coordinates": [-93.6485324, 42.027078]}}, {"id": "15489", "type": "Feature", "properties": {"Attraction": "Tourism/Cultural", "code": 2725, "fclass": "artwork", "geo_code": "27", "name": "Epilogue", "osm_id": "7885372351"}, "geometry": {"type": "Point", "coordinates": [-93.6482486, 42.0271181]}}, {"id": "15490", "type": "Feature", "properties": {"Attraction": "Tourism/Cultural", "code": 2725, "fclass": "artwork", "geo_code": "27", "name": "Mujer Pegada Series No. 1", "osm_id": "7885372352"}, "geometry": {"type": "Point", "coordinates": [-93.6480171, 42.0275168]}}, {"id": "15491", "type": "Feature", "properties": {"Attraction": "Tourism/Cultural", "code": 2725, "fclass": "artwork", "geo_code": "27", "name": "Transformation", "osm_id": "7885372353"}, "geometry": {"type": "Point", "coordinates": [-93.6478775, 42.0272256]}}, {"id": "15492", "type": "Feature", "properties": {"Attraction": "Tourism/Cultural", "code": 2725, "fclass": "artwork", "geo_code": "27", "name": "Procession", "osm_id": "7885372354"}, "geometry": {"type": "Point", "coordinates": [-93.6477017, 42.0285476]}}, {"id": "15493", "type": "Feature", "properties": {"Attraction": "Tourism/Cultural", "code": 2725, "fclass": "artwork", "geo_code": "27", "name": "Whirlwind", "osm_id": "7885372363"}, "geometry": {"type": "Point", "coordinates": [-93.6459216, 42.0229839]}}, {"id": "15494", "type": "Feature", "properties": {"Attraction": "Tourism/Cultural", "code": 2725, "fclass": "artwork", "geo_code": "27", "name": "Bravo III", "osm_id": "7885372364"}, "geometry": {"type": "Point", "coordinates": [-93.6447844, 42.0255157]}}, {"id": "15572", "type": "Feature", "properties": {"Attraction": "Tourism/Cultural", "code": 2725, "fclass": "artwork", "geo_code": "27", "name": "Start to Finish", "osm_id": "7961262546"}, "geometry": {"type": "Point", "coordinates": [-93.6637015, 42.04072]}}, {"id": "15578", "type": "Feature", "properties": {"Attraction": "Tourism/Cultural", "code": 2742, "fclass": "viewpoint", "geo_code": "27", "name": "Overlook", "osm_id": "7973789323"}, "geometry": {"type": "Point", "coordinates": [-93.6661376, 42.04233]}}, {"id": "15680", "type": "Feature", "properties": {"Attraction": "Tourism/Cultural", "code": 2701, "fclass": "tourist_info", "geo_code": "27", "name": null, "osm_id": "8026907359"}, "geometry": {"type": "Point", "coordinates": [-93.6499943, 42.0213567]}}, {"id": "15704", "type": "Feature", "properties": {"Attraction": "Tourism/Cultural", "code": 2721, "fclass": "attraction", "geo_code": "27", "name": "Elwood the Gnome", "osm_id": "8044697327"}, "geometry": {"type": "Point", "coordinates": [-93.6391765, 42.0097054]}}, {"id": "15705", "type": "Feature", "properties": {"Attraction": "Tourism/Cultural", "code": 2725, "fclass": "artwork", "geo_code": "27", "name": "Shep", "osm_id": "8045456590"}, "geometry": {"type": "Point", "coordinates": [-93.6385614, 42.0112664]}}, {"id": "15706", "type": "Feature", "properties": {"Attraction": "Tourism/Cultural", "code": 2725, "fclass": "artwork", "geo_code": "27", "name": "Pediment", "osm_id": "8045456591"}, "geometry": {"type": "Point", "coordinates": [-93.6372532, 42.011281]}}, {"id": "15707", "type": "Feature", "properties": {"Attraction": "Tourism/Cultural", "code": 2725, "fclass": "artwork", "geo_code": "27", "name": "Dikotomia", "osm_id": "8045456592"}, "geometry": {"type": "Point", "coordinates": [-93.6376716, 42.0114149]}}, {"id": "16030", "type": "Feature", "properties": {"Attraction": "Tourism/Cultural", "code": 2701, "fclass": "tourist_info", "geo_code": "27", "name": null, "osm_id": "8525712206"}, "geometry": {"type": "Point", "coordinates": [-93.6349008, 42.0225376]}}, {"id": "16145", "type": "Feature", "properties": {"Attraction": "Tourism/Cultural", "code": 2725, "fclass": "artwork", "geo_code": "27", "name": null, "osm_id": "8638920583"}, "geometry": {"type": "Point", "coordinates": [-93.6138337, 42.0251644]}}, {"id": "16148", "type": "Feature", "properties": {"Attraction": "Tourism/Cultural", "code": 2725, "fclass": "artwork", "geo_code": "27", "name": null, "osm_id": "8638920596"}, "geometry": {"type": "Point", "coordinates": [-93.6145876, 42.0251743]}}, {"id": "16149", "type": "Feature", "properties": {"Attraction": "Tourism/Cultural", "code": 2725, "fclass": "artwork", "geo_code": "27", "name": null, "osm_id": "8638932264"}, "geometry": {"type": "Point", "coordinates": [-93.6151939, 42.0251616]}}, {"id": "16150", "type": "Feature", "properties": {"Attraction": "Tourism/Cultural", "code": 2725, "fclass": "artwork", "geo_code": "27", "name": null, "osm_id": "8638932265"}, "geometry": {"type": "Point", "coordinates": [-93.6155345, 42.0251487]}}, {"id": "16151", "type": "Feature", "properties": {"Attraction": "Tourism/Cultural", "code": 2725, "fclass": "artwork", "geo_code": "27", "name": null, "osm_id": "8638932274"}, "geometry": {"type": "Point", "coordinates": [-93.6167212, 42.0251254]}}, {"id": "16155", "type": "Feature", "properties": {"Attraction": "Tourism/Cultural", "code": 2725, "fclass": "artwork", "geo_code": "27", "name": null, "osm_id": "8638932600"}, "geometry": {"type": "Point", "coordinates": [-93.6167185, 42.0250069]}}, {"id": "16156", "type": "Feature", "properties": {"Attraction": "Tourism/Cultural", "code": 2725, "fclass": "artwork", "geo_code": "27", "name": null, "osm_id": "8638932607"}, "geometry": {"type": "Point", "coordinates": [-93.6166509, 42.0249997]}}, {"id": "16157", "type": "Feature", "properties": {"Attraction": "Tourism/Cultural", "code": 2725, "fclass": "artwork", "geo_code": "27", "name": null, "osm_id": "8638932624"}, "geometry": {"type": "Point", "coordinates": [-93.6155318, 42.0250114]}}, {"id": "16158", "type": "Feature", "properties": {"Attraction": "Tourism/Cultural", "code": 2725, "fclass": "artwork", "geo_code": "27", "name": null, "osm_id": "8638932657"}, "geometry": {"type": "Point", "coordinates": [-93.6153702, 42.0248874]}}, {"id": "16160", "type": "Feature", "properties": {"Attraction": "Tourism/Cultural", "code": 2725, "fclass": "artwork", "geo_code": "27", "name": null, "osm_id": "8638932699"}, "geometry": {"type": "Point", "coordinates": [-93.6151929, 42.0250152]}}, {"id": "16161", "type": "Feature", "properties": {"Attraction": "Tourism/Cultural", "code": 2725, "fclass": "artwork", "geo_code": "27", "name": null, "osm_id": "8638932714"}, "geometry": {"type": "Point", "coordinates": [-93.6138292, 42.0250502]}}, {"id": "16162", "type": "Feature", "properties": {"Attraction": "Tourism/Cultural", "code": 2725, "fclass": "artwork", "geo_code": "27", "name": null, "osm_id": "8638932715"}, "geometry": {"type": "Point", "coordinates": [-93.6138911, 42.0250345]}}, {"id": "16177", "type": "Feature", "properties": {"Attraction": "Tourism/Cultural", "code": 2725, "fclass": "artwork", "geo_code": "27", "name": null, "osm_id": "8639307148"}, "geometry": {"type": "Point", "coordinates": [-93.6135909, 42.0251704]}}, {"id": "16178", "type": "Feature", "properties": {"Attraction": "Tourism/Cultural", "code": 2725, "fclass": "artwork", "geo_code": "27", "name": null, "osm_id": "8639307149"}, "geometry": {"type": "Point", "coordinates": [-93.6135345, 42.0251503]}}, {"id": "16180", "type": "Feature", "properties": {"Attraction": "Tourism/Cultural", "code": 2725, "fclass": "artwork", "geo_code": "27", "name": null, "osm_id": "8639307218"}, "geometry": {"type": "Point", "coordinates": [-93.6135883, 42.0250534]}}, {"id": "16184", "type": "Feature", "properties": {"Attraction": "Tourism/Cultural", "code": 2725, "fclass": "artwork", "geo_code": "27", "name": null, "osm_id": "8639307306"}, "geometry": {"type": "Point", "coordinates": [-93.6119275, 42.0252034]}}, {"id": "16185", "type": "Feature", "properties": {"Attraction": "Tourism/Cultural", "code": 2725, "fclass": "artwork", "geo_code": "27", "name": null, "osm_id": "8639307307"}, "geometry": {"type": "Point", "coordinates": [-93.6119219, 42.0250768]}}, {"id": "16186", "type": "Feature", "properties": {"Attraction": "Tourism/Cultural", "code": 2725, "fclass": "artwork", "geo_code": "27", "name": null, "osm_id": "8639307312"}, "geometry": {"type": "Point", "coordinates": [-93.6106096, 42.0249231]}}, {"id": "16187", "type": "Feature", "properties": {"Attraction": "Tourism/Cultural", "code": 2725, "fclass": "artwork", "geo_code": "27", "name": null, "osm_id": "8639307339"}, "geometry": {"type": "Point", "coordinates": [-93.61108, 42.0250923]}}, {"id": "16188", "type": "Feature", "properties": {"Attraction": "Tourism/Cultural", "code": 2725, "fclass": "artwork", "geo_code": "27", "name": null, "osm_id": "8639307340"}, "geometry": {"type": "Point", "coordinates": [-93.6110861, 42.0252063]}}, {"id": "16224", "type": "Feature", "properties": {"Attraction": "Tourism/Cultural", "code": 2701, "fclass": "tourist_info", "geo_code": "27", "name": null, "osm_id": "8677594873"}, "geometry": {"type": "Point", "coordinates": [-93.6487, 42.0255505]}}, {"id": "16230", "type": "Feature", "properties": {"Attraction": "Tourism/Cultural", "code": 2701, "fclass": "tourist_info", "geo_code": "27", "name": null, "osm_id": "8680649599"}, "geometry": {"type": "Point", "coordinates": [-93.6517041, 42.0255634]}}, {"id": "16260", "type": "Feature", "properties": {"Attraction": "Tourism/Cultural", "code": 2725, "fclass": "artwork", "geo_code": "27", "name": "Janus Agri Altar", "osm_id": "8700031485"}, "geometry": {"type": "Point", "coordinates": [-93.6429788, 42.0282105]}}, {"id": "16294", "type": "Feature", "properties": {"Attraction": "Tourism/Cultural", "code": 2725, "fclass": "artwork", "geo_code": "27", "name": null, "osm_id": "8778081513"}, "geometry": {"type": "Point", "coordinates": [-93.6338655, 41.9942731]}}]}