PID,Address,longitude,latitude
909176150,436 Hayward Ave,-93.6514517,42.0177796
905476230,3416 West St,-93.6641856,42.0246969
911128020,320 S 2nd St,-93.6148547,42.0213891
535377150,1524 Douglas Ave,-93.6120649,42.0380697
534177230,2304 Fillmore Ave,-93.6318933,42.0449
908128060,4003 Marigold Dr,-93.6716132,42.0191089
902135020,212 10th St,-93.6128959,42.0310516
528228540,2431 Lakeside Dr,-93.6427409,42.0634011
923426010,602 Ken Maril Rd,-93.6036175,41.9863363
908186050,3901 Marigold Dr,-93.6703816,42.019086
528186170,3629 Chilton Ave,-93.6514127,42.057103
923426070,700 Ken Maril Rd,-93.6021339,41.9863635
902204080,1102 Carroll Ave,-93.6086225,42.0322288
535105100,2519 Kellogg Ave,-93.615957,42.047252
907405020,812 Tennyson Ave,-93.68745,42.015738
531382110,5220 Maryland St,-93.6899194,42.0357536
906380120,319 Hartford Dr,-93.6894042,42.0251853
909101060,2910 Wood St,-93.6578284,42.0219435
534152050,2102 Prairie View E,-93.6364656,42.0427279
923252075,424 Teagarden Dr,-93.6054374,41.9873619
531376060,1514 California Ave,-93.6909894,42.0373416
902201120,1216 Carroll Ave,-93.6087016,42.0338488
923228080,626 Meadow Pl,-93.602403,41.992342
902326030,829 Douglas Ave,-93.6125793,42.0299412
527451330,1342 Barkley Ct,-93.628319,42.051423
528218100,4205 Crestmoor Ave,-93.6457105,42.0619944
916386140,3028 Cottontail Lane,-93.6502643,41.99435740000001
533221090,2711 Hampton St,-93.6459481,42.0461934
534128010,1636 Johnson St,-93.632865,42.048968
528106110,3331 Weston Dr,-93.657825,42.0614983
902206260,926 Duff Ave,-93.6102843,42.0311722
528222090,4302 Welbeck Dr,-93.6441465,42.0632601
528218150,4103 Crestmoor Ave,-93.6444831,42.061763
903400180,816 Brookridge Ave,-93.627,42.029399
535453210,1522 Maxwell Ave,-93.606565,42.0376628
916386010,3005 Cedar Ln,-93.6494525,41.9951757
907181090,5408 Cervantes Dr,-93.6919315,42.0168902
902206020,118 E 11th St,-93.6096908,42.0318476
527327050,3323 Buchanan Ct,-93.6317746,42.0549831
527455250,1115 28th St,-93.6258371,42.0488372
528326110,3013 Almond Rd,-93.6513731,42.0559073
914452190,302 Opal Cir,-93.6073563,41.99400960000001
535425060,1903 Meadowlane Ave,-93.6054572,42.041367
532376250,4015 Toronto St,-93.673079,42.0360221
535379110,1412 Kellogg Ave,-93.6136477,42.0362045
528118010,3335 Preston Cir,-93.6580859,42.0605784
528235160,3908 Welbeck Dr,-93.6435922,42.0603433
905478030,3218 West St,-93.660997,42.0247405
902106130,1010 Grand Ave,-93.6200784,42.03157909999999
902102080,1203 Burnett Ave,-93.6158737,42.0334401
909176170,426 Hayward Ave,-93.6514519,42.0181276
533206070,2807 Bristol Dr,-93.647166,42.047406
527302020,3414 Eisenhower Ave,-93.6376533,42.0559751
907414060,4824 Waller St,-93.6854016,42.0135674
904301060,3012 Oakland St,-93.6587196,42.0279616
532479020,1306 Scott Cir,-93.6603237,42.0346517
528110070,3207 Stockbury St,-93.656264,42.0624123
534429130,808 Narland Dr,-93.6218792,42.0400015
528365060,2900 Ridgetop Rd,-93.6558878,42.0497012
533135020,2614 Southridge Cir,-93.6500944,42.0473036
910203100,301 S Russell Ave,-93.6286474,42.020356
905451390,310 Westwood Dr,-93.6671473,42.0249489
533213010,2805 Bristol Dr,-93.647039,42.047338
528118030,3317 Preston Cir,-93.657373,42.060601
907200340,5203 Schubert St,-93.6879775,42.0214834
528164060,3320 Foxley Dr,-93.65758900000002,42.058348
907202010,410 Thackeray Ave,-93.6865508,42.019404
528186180,3623 Chilton Ave,-93.6514127,42.0569486
909250060,2320 Knapp St,-93.6473143,42.0188965
528315060,3142 Bayberry Rd,-93.655767,42.054148
528231020,3917 Welbeck Dr,-93.6440475,42.0607343
528456230,2841 Aspen Rd,-93.6477696,42.051465
907180120,5325 Cervantes Dr,-93.691007,42.01758299999999
911370410,433 Aspen Ridge Rd,-93.616112,42.009536
527108090,4316 Harrison Cir,-93.636105,42.063269
528222050,4210 Welbeck Dr,-93.6441663,42.06250660000001
528429110,2416 Dalton Cir,-93.6413892,42.0542768
902328100,704 Burnett Ave,-93.6151515,42.0280832
527451410,1314 Barkley Ct,-93.6275299,42.051564
531477050,Address missing,-93.6319131,42.0307812
914476130,3007 Diamond St,-93.601356,41.9957149
535453020,1523 Glendale Ave,-93.6061496,42.0377338
535379100,1408 Kellogg Ave,-93.6136675,42.03603
905108190,934 Mesa Verde Pl,-93.6707812,42.0309191
905201110,1124 Scholl Rd,-93.6651362,42.0331658
903227090,1206 Marston Ave,-93.6233436,42.0335431
905107300,3902 Arkansas Dr,-93.672106,42.0312709
903401070,611 Ridgewood Ave,-93.6256788,42.0272497
903230100,1015 Curtiss Ave,-93.6248476,42.0318346
527105010,4025 Berkshire Ave,-93.6392567,42.0612335
528480020,2616 Kingston Dr,-93.6442059,42.0520027
527402130,1217 Jefferson St,-93.6271037,42.0555166
909251080,507 Lynn Ave,-93.6466608,42.0176227
908201120,3411 Tripp St,-93.6653323,42.0202853
533221080,2713 Hampton St,-93.6460273,42.0461909
535178100,2004 Burnett Ave,-93.6156461,42.0423026
535457050,1302 Maxwell Ave,-93.606533,42.034714
923226270,615 Meadow Pl,-93.6029808,41.9924141
535105090,2527 Kellogg Ave,-93.616126,42.047407
533253070,2024 Pinehurst Dr,-93.649136,42.042511
907280170,4619 Clemens Blvd,-93.6817957,42.0181653
914476450,703 Onyx St,-93.6025295,41.9962483
535327200,1624 Douglas Ave,-93.6120253,42.0392683
528441090,2426 Yorkshire Cir,-93.641855,42.052903
906426195,601 Chelsea Ct,-93.679165,42.027235
534275170,2009 Roosevelt Cir,-93.6239373,42.0425245
923226180,633 Meadow Pl,-93.6021877,41.9926829
923226320,605 Meadow Pl,-93.6033603,41.9923178
528118050,3305 Preston Cir,-93.6565017,42.0606287
916253320,Address missing,-93.6319131,42.0307812
904300150,3021 Oakland St,-93.6591355,42.0283927
533236050,2510 Bristol Dr,-93.6428597,42.0469478
527354160,2009 Stevenson Dr,-93.6360411,42.0527012
528435040,2604 Dalton St,-93.6436714,42.0540084
534129230,2705 Hoover Ave,-93.6305078,42.0481878
535325350,225 16th St,-93.6136873,42.03852089999999
902408080,508 Carroll Ave,-93.6082663,42.026329
916455050,2829 White Oak Dr,-93.6470568,41.99654659999999
909276200,418 Pearson Ave,-93.642147,42.0187317
534277060,2125 Furman Dr,-93.6215824,42.044356
905107280,3914 Arkansas Dr,-93.672564,42.031094
923204050,3309 Southdale Dr,-93.6057539,41.9927647
531376050,1508 California Ave,-93.6910687,42.0371459
903454010,1218 N 3rd St,-93.6277568,42.0250013
906412010,532 Westfield Rd,-93.6873236,42.0278211
535301060,1907 Clark Ave,-93.6174665,42.0413956
534453080,1430 Ridgewood Ave,-93.6287266,42.03661830000001
911102180,202 S Walnut Ave,-93.6165761,42.0214702
535403210,1604 Carroll Ave,-93.6087016,42.0384456
531382120,5214 Maryland St,-93.6897014,42.0357026
916455120,2311 Suncrest Dr,-93.6474132,41.9956076
905475510,310 Colorado Cir,-93.6632943,42.02559460000001
916326090,2320 Timberland Rd,-93.6494327,42.0004141
909101140,2812 Wood St,-93.6562046,42.02195649999999
907260050,5110 Clemens Blvd,-93.6879669,42.01675729999999
907131090,5300 Norris St,-93.6900779,42.0206433
903206160,910 Brookridge Ave,-93.6272224,42.0308713
528222020,4116 Welbeck Dr,-93.6439556,42.0619586
526352090,3010 Kellogg Ave,-93.618258,42.0518756
534201280,1237 24th St,-93.6274995,42.0458497
908102330,301 Abraham Dr,-93.6765259,42.0197634
906385010,5505 Durant St,-93.6922378,42.0247274
534276230,2002 Melrose Ave,-93.6219979,42.0422766
906420020,923 Vermont Cir,-93.682156,42.0301319
527404120,3203 Garner Ave,-93.6273412,42.0535011
907192010,5301 Clemens Blvd,-93.6896532,42.0170448
527131030,4239 Stone Brooke Rd,-93.63449,42.06216000000001
527452290,1401 Johnson St,-93.62924,42.049088
907250030,509 Smiley Ave,-93.688127,42.018114
909251040,2322 Baker St,-93.6474926,42.01775079999999
535377100,1502 Douglas Ave,-93.6120253,42.0372211
528174050,2910 Harrison Rd,-93.6501909,42.0589571
533128090,2700 Northridge Cir,-93.6500861,42.0480897
533250110,2869 Greensboro Cir,-93.649046,42.045133
908186040,3905 Marigold Dr,-93.670495,42.0190861
903231050,1113 Marston Ave,-93.6238185,42.0325624
908152110,414 Wellons Dr,-93.6749807,42.0188082
535476110,1603 Meadowlane Ave,-93.604112,42.0383191
533250050,2845 Greensboro Cir,-93.647655,42.045012
535325340,221 16th St,-93.6135092,42.0385072
909475050,2152 Ashmore Dr,-93.6437505,42.0106624
907196020,5216 Clemens Blvd,-93.6888295,42.0167228
533130160,2424 Ridgetop Cir,-93.6514127,42.0461746
535102010,2729 Northwood Dr,-93.617605,42.0492894
531475220,1404 Idaho Ave,-93.68373,42.035577
527325070,1904 Buchanan Dr,-93.6350998,42.0544533
911175440,315 S 4th St,-93.61444,42.019349
903226160,1222 Curtiss Ave,-93.6244122,42.0340889
902134100,321 9th St,-93.615031,42.030406
902111010,412 10th St,-93.6163782,42.0310967
535381040,1311 Kellogg Ave,-93.6142809,42.03506429999999
910202060,109 S Maple Ave,-93.6254413,42.022389
535477180,1308 Meadowlane Ave,-93.6034744,42.034983
528429120,2422 Dalton Cir,-93.6414042,42.054005
908127050,211 Dotson Dr,-93.6716528,42.0206532
528439010,2625 Yorkshire St,-93.6445622,42.053343
906223110,1018 Vermont Ct,-93.6818353,42.0314544
528358010,3127 Aspen Rd,-93.6551749,42.0515775
532378160,3815 Ontario St,-93.67044,42.03473400000001
531450040,1309 Kentucky Ave,-93.6880171,42.0348875
527326040,3412 Taft Ave,-93.6349613,42.0554423
903204095,1209 Northwestern Ave,-93.6259558,42.03369259999999
527182170,3908 Stone Brooke Cir,-93.632716,42.059541
905105040,1001 Arizona Ave,-93.6758127,42.0313766
528477020,2617 Kingston Dr,-93.6442257,42.052369
905202210,3616 Ross Rd,-93.6674932,42.0320284
903425190,609 Northwestern Ave,-93.6232644,42.0272485
535150210,2013 Clark Ave,-93.6175258,42.0424945
535453160,1426 Maxwell Ave,-93.6066046,42.0366958
535353130,625 13th St,-93.619742,42.0347381
535456070,1308 Stafford Ave,-93.6075937,42.0348879
908250090,3505 Coy St,-93.6665365,42.0180839
527452070,2951 Northwestern Ave,-93.627459,42.05056099999999
902325100,802 Burnett Ave,-93.6151119,42.029089
921126030,3217 Red Fox Road,-93.6534918,41.992728
905401060,519 Oliver Cir,-93.6667329,42.029697
916402125,2513 White Oak Dr,-93.6464233,41.9996204
531452010,1302 Indiana Ave,-93.6859762,42.0348177
528363070,3202 Aspen Rd,-93.6555375,42.050844
533208090,2732 Northridge Ln,-93.6462847,42.0475151
534401130,1317 Coolidge Dr,-93.6277568,42.0392176
910203230,304 S Riverside Dr,-93.6292412,42.0202214
907420090,922 Poe Ave,-93.6837373,42.0139685
902303100,609 7th St,-93.618812,42.0280648
906392120,125 Hartford Dr,-93.6894636,42.0237346
903484080,1003 Lincoln Way,-93.6239373,42.0230933
527301320,3217 Eisenhower Ave,-93.637571,42.054149
527140090,4029 Fletcher Blvd,-93.634156,42.060921
909428170,2117 Greenbriar Cir,-93.641751,42.0127932
905228050,1101 Iowa Ave,-93.6597296,42.03273919999999
533234020,2517 Sherwood Ave,-93.6436912,42.0468442
533212100,2611 Stange Rd,-93.6451958,42.04749169999999
534475185,1306 Northwestern Ave,-93.6254413,42.0350609
905452150,318 Crane Ave,-93.6658691,42.025474
528176010,3807 Bridgeport Dr,-93.6563432,42.0580082
535450160,1401 Carroll Ave,-93.6092951,42.0358775
533215040,2505 Bradford Dr,-93.647093,42.04653
528104010,3131 Sedwick St,-93.6555512,42.0632843
535325090,1719 Douglas Ave,-93.6126387,42.0400023
909250210,424 Stanton Ave,-93.6483239,42.0182655
527325110,1802 Buchanan Dr,-93.633932,42.0549343
910202030,1108 Lincoln Way,-93.6255996,42.0226931
535175180,2304 Kellogg Ave,-93.6151515,42.045041
534202160,1217 25th St,-93.6267475,42.0466844
916403020,2722 White Oak Cir,-93.6461263,41.9976005
535354100,1323 Clark Ave,-93.6174467,42.0354284
905227050,1202 Scott Ave,-93.6603633,42.0336461
534451020,1423 Ridgewood Ave,-93.6291224,42.0364513
533120030,3118 Maplewood Rd,-93.6539449,42.047486
905352010,200 Trail Ridge Rd,-93.6739308,42.0238453
905108220,1008 Mesa Verde Pl,-93.6710417,42.0314451
527165170,3715 Columbine Cir,-93.6361687,42.05754719999999
535353190,1404 Grand Ave,-93.6200587,42.0357711
528315070,3136 Bayberry Rd,-93.655503,42.05403
903232060,1109 Roosevelt Ave,-93.6227499,42.0324029
906204180,1124 Idaho Ave,-93.6829737,42.0326207
906475110,215 Parkridge Cir,-93.6824297,42.024752
906223040,1017 Florida Ave,-93.6812805,42.0314335
909253190,612 Stanton Ave,-93.6482843,42.0165665
923400150,428 Ken Maril Rd,-93.6054967,41.9863741
923226290,611 Meadow Pl,-93.6032812,41.99232019999999
909282020,2124 Country Club Blvd,-93.6428003,42.015639
528110110,3323 Stockbury St,-93.657769,42.0623645
534479320,1526 Harding Ave,-93.621246,42.0378969
528150110,3215 Harrison Rd,-93.656264,42.0597096
906380160,5321 Durant St,-93.690067,42.024794
911370460,415 Aspen Ridge Rd,-93.61521,42.009569
535477090,1434 Meadowlane Ave,-93.6035383,42.0365795
534478230,1428 Roosevelt Ave,-93.6223145,42.0367817
906426060,4813 Dover Dr,-93.6833609,42.0278708
528235190,4004 Welbeck Dr,-93.6434131,42.06088219999999
923225440,535 Meadow Ct,-93.604501,41.991967
923276030,615 Garden Rd,-93.6035186,41.9889492
909425060,915 Gaskill Dr,-93.6432175,42.0143422
902332030,621 Douglas Ave,-93.612421,42.0277827
528188060,3716 Ashton Dr,-93.6502361,42.057467
527105140,4012 Hyde Ave,-93.6398846,42.0612755
535477150,1402 Meadowlane Ave,-93.6034726,42.035473
535327210,1704 Douglas Ave,-93.6119462,42.039464
533213070,2717 Bristol Dr,-93.646368,42.047191
904100100,1215 Hyland Ave,-93.655995,42.03399719999999
528188120,3702 Chilton Ave,-93.6508624,42.057094
528480180,2625 Clayton Dr,-93.6445622,42.0514894
528114040,3310 Weston Dr,-93.6569769,42.0609997
528235020,4005 Brickman Ave,-93.6429048,42.0611341
908275110,246 S Franklin Ave,-93.6645025,42.0193549
905103140,4107 Ross Rd,-93.6747232,42.0323964
902402260,822 Carroll Ave,-93.608382,42.029713
528235200,4010 Welbeck Dr,-93.64344,42.0610675
528181060,2908 Roxboro Dr,-93.649884,42.058014
923275200,3827 Minnetonka Ave,-93.6051011,41.9877784
903451110,318 N Russell Ave,-93.6280932,42.02586
528181040,2914 Roxboro Dr,-93.6502247,42.0580288
908102110,4404 Todd Dr,-93.6777343,42.0210192
533217050,2710 Bristol Dr,-93.6461,42.046784
533350090,1712 Amherst Dr,-93.6571649,42.037551
528445070,2518 Yorkshire St,-93.6429587,42.0529497
527212040,4020 Edgewater Dr,-93.6285238,42.0608447
907200270,112 Sandburg Ct,-93.6873434,42.0222378
908201040,117 S Franklin Ave,-93.6650768,42.0220992
907410100,809 Poe Ave,-93.6840741,42.0157932
903481120,1027 N 2nd St,-93.6250455,42.0242561
535453180,1506 Maxwell Ave,-93.6066244,42.0371008
907227110,212 Rockwell Ave,-93.6829448,42.0213355
531453010,1304 Illinois Ave,-93.6848468,42.0347187
531478010,4712 Toronto St,-93.6822712,42.0356123
535403200,211 E 16th St,-93.6084246,42.0384543
527254020,1214 Adams St,-93.6287068,42.0596555
527366030,2818 Somerset Dr,-93.6392369,42.0503643
535325460,1704 Burnett Ave,-93.6152306,42.0395926
528110040,3308 Sedwick St,-93.6569769,42.0628529
906392090,215 Hartford Dr,-93.6894636,42.0243528
535452140,1402 Stafford Ave,-93.6076333,42.0358524
535151160,2204 Barr Dr,-93.619465,42.0440557
535456050,313 E 13th St,-93.6071189,42.0347483
903429110,716 Hodge Ave,-93.6212657,42.02845120000001
916455150,2329 Suncrest Dr,-93.6482645,41.99559989999999
909425180,1036 Ash Ave,-93.6439881,42.0124326
528175050,2907 Roxboro Dr,-93.6498485,42.0585234
910205010,1110 S 2nd St,-93.6258767,42.02140929999999
533206020,2819 Bristol Dr,-93.647647,42.047787
902427040,418 E 6th St,-93.604745,42.0268257
528427020,3211 Cullen Dr,-93.6443841,42.0546036
528458070,2816 Aspen Rd,-93.6470568,42.0507925
903401030,701 Ridgewood Ave,-93.6257975,42.0279028
909275040,311 Pearson Ave,-93.6429587,42.0198845
527163130,3828 Eisenhower Ave,-93.6376335,42.0592771
905200350,3605 Ross Rd,-93.6668594,42.03247349999999
528363050,3212 Sumac Cir,-93.6556304,42.05046249999999
908154205,4302 Cochrane Pkwy,-93.6767041,42.0164154
903233140,1004 Roosevelt Ave,-93.622275,42.0314521
905107070,3910 Ross Rd,-93.6719301,42.0320414
528240020,4011 Westlawn Dr,-93.6417599,42.0613181
906225180,1005 Delaware Ave,-93.6801909,42.0315263
528114010,3334 Weston Dr,-93.6580859,42.0609645
907126030,5416 Norris St,-93.6926143,42.0210642
904100160,2913 Ross Rd,-93.6583829,42.0334387
909254130,2227 Storm St,-93.6456566,42.0163572
535403030,114 E O'Neil Dr,-93.6099045,42.0398979
907412010,4919 Waller St,-93.6863837,42.0143613
903228080,807 12th St,-93.6218792,42.0334733
531452100,1420 Indiana Ave,-93.6861468,42.0360022
526302030,3115 Northwood Dr,-93.6183965,42.0534738
902106090,619 10th St,-93.6195046,42.0314234
527161090,3842 Hyde Ave,-93.640009,42.0593178
532353120,1306 Woodstock Ave,-93.676808,42.034949
535453070,1429 Glendale Ave,-93.6061496,42.0367294
534252110,2115 Hunziker Dr,-93.6249663,42.0434963
535327230,1714 Douglas Ave,-93.6120253,42.0398477
905425125,3421 Oakland St,-93.663631,42.0286553
908103280,4125 Aplin Rd,-93.6747232,42.0201108
528221060,4110 Crestmoor Ave,-93.6449978,42.0621328
921128020,2716 Cottonwood Rd,-93.6525413,41.9928355
528174040,2914 Harrison Rd,-93.6504029,42.0589691
909256010,714 Stanton Ave,-93.6482447,42.0156404
533212060,2621 Stange Rd,-93.6451632,42.0481801
908204180,3412 Tripp St,-93.6653593,42.019983
533223100,2412 Eaton Ave,-93.645202,42.046055
909176180,422 Hayward Ave,-93.6514326,42.01830229999999
903475040,914 6th St,-93.6233418,42.0265934
535426195,1630 Crestwood Cir,-93.6053781,42.0397858
905103040,3913 Ross Rd,-93.6720291,42.0324825
528110100,3313 Stockbury St,-93.6574522,42.0623745
534431030,806 Murray Dr,-93.62195,42.03899
905300010,4418 Phoenix St,-93.6784673,42.02932149999999
914474070,3012 Sapphire Cir,-93.603301,41.9951611
534428100,821 Narland Dr,-93.622567,42.040477
533350050,3110 Kingman Rd,-93.6579473,42.0368518
908188130,3830 Marigold Dr,-93.6701225,42.0186459
534453150,1402 Ridgewood Ave,-93.6280141,42.03575230000001
528458120,2719 Cambridge Dr,-93.647334,42.0502431
535179050,208 22nd St,-93.6133707,42.0437452
527302185,3416 Clinton Ct,-93.6361558,42.0559321
534128190,2531 Pierce Ave,-93.63263700000002,42.046917
528180110,3015 Burnham Dr,-93.6519275,42.0579361
916176125,2227 Timberland Rd,-93.652119,42.00138
903454090,1211 N 2nd St,-93.6274995,42.024256
535457010,1321 Glendale Ave,-93.6061496,42.035416
528462040,2806 York Dr,-93.6483239,42.0500958
909428120,2003 Greenbriar Cir,-93.6397912,42.0127973
916460060,2902 White Oak Dr,-93.6464233,41.99641210000001
528431050,2507 Dalton St,-93.6426419,42.05442710000001
527110020,1909 Wyngate Dr,-93.6371189,42.0607992
535352080,419 15th St,-93.6164574,42.0371978
527402250,1115 Garner Cir,-93.6258962,42.0545804
535451040,1517 Stafford Ave,-93.6081476,42.0374973
905452050,329 S Franklin Ave,-93.6650055,42.0183683
903225090,1202 Northwestern Ave,-93.6254017,42.033401
531363010,5406 Kansas Dr,-93.69153,42.037557
923205025,314 Patricia Dr,-93.6075542,41.9910265
532377060,1327 Alabama Ln,-93.6726036,42.035342
902109160,926 Grand Ave,-93.6200226,42.0311112
902128075,1107 Kellogg Ave,-93.6142017,42.0324013
528178070,3728 Bridgeport Dr,-93.6557888,42.057717
903225160,1232 Northwestern Ave,-93.6254413,42.0344042
906380170,5327 Durant St,-93.6903355,42.0247884
528174020,2920 Harrison Rd,-93.650679,42.059026
910201110,125 S Hazel Ave,-93.6271037,42.021873
535325400,1606 Burnett Ave,-93.6152306,42.0384724
535150070,2201 Barr Dr,-93.6200715,42.043994
533254100,2106 Torrey Pines Rd,-93.645294,42.04252
533254130,2124 Torrey Pines Rd,-93.6453007,42.043174
907194110,5344 Clemens Blvd,-93.691047,42.01589999999999
531375100,5321 Kansas Dr,-93.69092,42.0378931
532477030,3326 Kingman Rd,-93.6621259,42.0373562
534102025,2651 Somerset Dr,-93.639712,42.0487273
905452160,322 Crane Ave,-93.6661493,42.025708
533208050,2808 Northridge Ln,-93.646884,42.047652
905427030,3226 Oakland St,-93.661809,42.0278634
535301010,520 20th St,-93.61831730000002,42.0418517
909280030,623 Agg Ave,-93.6414541,42.0166863
528116010,4115 Wembley Ave,-93.6587988,42.06094179999999
528228270,2421 Westwind Dr,-93.6430899,42.0625479
907252210,4707 Hemingway Dr,-93.6830637,42.0190134
909475020,2166 Ashmore Dr,-93.6439089,42.0114303
907253110,4812 Hemingway Dr,-93.68468,42.018518
535325280,1617 Douglas Ave,-93.6126585,42.0389395
532378240,1322 Alabama Ln,-93.6720093,42.0352837
908102260,208 Todd Cir,-93.6771994,42.0208624
908226180,110 S Wilmoth Ave,-93.6613931,42.0222165
527425060,902 Top-O-Hollow Rd,-93.6235019,42.056441
527451540,1428 Breckinridge Ct,-93.629024,42.051588
902128170,1126 Burnett Ave,-93.6152306,42.0330644
903455090,1103 N 2nd St,-93.6255205,42.0242411
535300120,Address missing,-93.6319131,42.0307812
910203250,228 S Riverside Dr,-93.6292412,42.0205305
903228070,803 12th St,-93.6217209,42.033517
527214060,4008 Frances E Davis Ct,-93.6273412,42.0604129
528427010,3205 Cullen Dr,-93.6443841,42.0544492
535451250,1518 Carroll Ave,-93.6086818,42.0374998
908152270,415 Beedle Dr,-93.6735148,42.0185459
909452050,1312 Big Bluestem Ct,-93.644507,42.010485
532354160,4133 Ontario St,-93.6752184,42.03475630000001
531453100,1510 Illinois Ave,-93.6848072,42.03649679999999
527328050,1606 Top-O-Hollow Rd,-93.6318141,42.0562947
907418010,804 Poe Ave,-93.6834401,42.01596809999999
528344020,3040 Bayberry Rd,-93.653871,42.053298
532353180,1330 Woodstock Ave,-93.6767636,42.0360589
902106070,611 10th St,-93.6190495,42.031457
528221050,4102 Crestmoor Ave,-93.64465,42.062227
534479300,1512 Harding Ave,-93.621246,42.0373948
906223060,1005 Florida Ave,-93.6812805,42.03100860000001
535105060,428 26th St,-93.6169718,42.0470694
528108040,3106 Sedwick St,-93.6546007,42.0628512
909279010,2159 Country Club Blvd,-93.6440079,42.0158519
527183030,1527 Stone Brooke Rd,-93.632013,42.059518
527276160,3616 Calhoun Ave,-93.6237987,42.05726180000001
902207130,931 Maxwell Ave,-93.607092,42.031265
903227020,1225 Roosevelt Ave,-93.6228686,42.0342534
908203100,308 Village Dr,-93.6663444,42.0196247
534152120,2204 Prairie View E,-93.6377325,42.0437693
907290240,4715 Twain St,-93.6829939,42.016422
528478030,2419 Kingston Dr,-93.6411374,42.0523895
910201180,114 S Russell Ave,-93.6280141,42.0223079
533208140,2720 Northridge Ln,-93.645844,42.047961
528166150,3321 Foxley Dr,-93.6575908,42.0587987
905107140,911 Mesa Verde Pl,-93.6720489,42.0309173
527180100,3817 Fletcher Blvd,-93.6349613,42.0588403
528458080,2810 Aspen Rd,-93.6467796,42.0506854
905101450,1208 Arizona Ave,-93.6751986,42.0335401
914460110,303 Ruby Cir,-93.6074948,41.9961894
534400290,1413 16th St,-93.6286474,42.0384749
907254020,519 Poe Cir,-93.6846289,42.0176302
528458030,2840 Aspen Rd,-93.647928,42.0511511
528480060,2518 Kingston Dr,-93.6430576,42.05203909999999
905226050,1203 Scott Ave,-93.661096,42.0335262
528253010,2839 Roxboro Dr,-93.649635,42.058603
528228345,2309 Westwind Dr,-93.640876,42.062821
527425140,704 Top-O-Hollow Rd,-93.6216464,42.0564316
907135020,5409 Frost Dr,-93.6917028,42.0192775
533206040,2815 Bristol Dr,-93.647529,42.047579
535181140,2104 Douglas Ave,-93.6120202,42.0431575
902427045,422 E 6th St,-93.604567,42.026812
527405130,1202 Wheeler St,-93.6271662,42.0531712
528431040,3217 Kent Ave,-93.6427211,42.0548108
527450210,1333 Truman Pl,-93.627932,42.0527019
532378200,3905 Ontario St,-93.6714151,42.03472319999999
909278020,602 Ash Ave,-93.6439683,42.0169351
534225110,2624 Melrose Ave,-93.6244122,42.0482642
909451130,1505 Little Bluestem Ct UNIT 116,-93.6461452,42.00953459999999
528142020,3122 Beckley St,-93.6546007,42.060303
527404030,1212 Jefferson St,-93.6269454,42.0550968
527162180,3840 Berkshire Ave,-93.6387421,42.0596281
534151180,2025 Prairie View E,-93.6378315,42.0425109
908204090,278 Village Dr,-93.666384,42.018696
532354070,4106 Toronto St,-93.6740395,42.0357058
527302070,3306 Eisenhower Ave,-93.6375741,42.0548964
527214030,4013 Frances E Davis Ct,-93.6280735,42.0606794
533128030,2713 Northridge Cir,-93.650838,42.0485146
902330010,114 8th St,-93.6112142,42.0287671
923228150,707 Meadow Pl,-93.6017723,41.9923452
527302080,3300 Eisenhower Ave,-93.6376533,42.0546622
528344040,3028 Bayberry Rd,-93.653175,42.05324359999999
535403040,120 E O'Neil Dr,-93.6096908,42.0398824
535375050,1517 Kellogg Ave,-93.6142809,42.0376911
535376060,1511 Douglas Ave,-93.6128034,42.0375304
924151040,3616 Jewel Dr,-93.5997998,41.9894523
528186160,3703 Chilton Ave,-93.6514325,42.0572375
532351150,4307 Toronto St,-93.677453,42.0365599
905105010,1019 Arizona Ave,-93.6757533,42.0319772
527452310,1413 Johnson St,-93.6297162,42.0490238
909250200,428 Stanton Ave,-93.6483239,42.0181109
905101300,3901 Quebec St,-93.6714745,42.0335045
902329080,219 7th St,-93.6130937,42.0281092
903225140,1222 Northwestern Ave,-93.6254413,42.03409509999999
533215080,2415 Bradford Dr,-93.6473254,42.046175
534452060,1301 Ridgewood Ave,-93.6278953,42.0347131
532476050,1601 Amherst Dr,-93.6606999,42.0374016
909428110,2004 McCarthy Rd,-93.6396922,42.0133994
528170040,3108 Roxboro Dr,-93.6537096,42.0585746
533110130,2503 Ridgetop Rd,-93.6532352,42.0455912
921205030,2406 Cottonwood Rd,-93.6481854,41.993051
923203090,3318 Emerald Dr,-93.607937,41.992429
535104120,510 Luther Dr,-93.6178424,42.0481234
528366070,3108 Sycamore Rd,-93.6533547,42.0493246
902205010,Address missing,-93.6319131,42.0307812
923204040,428 Jewel Dr,-93.6058528,41.9930129
535378080,1400 Burnett Ave,-93.6152306,42.0358843
533251130,2804 Pinehurst Cir,-93.6453853,42.0445005
528235130,3838 Welbeck Dr,-93.6436912,42.0597804
903226130,1210 Curtiss Ave,-93.6244122,42.0337026
903235020,1018 10th St,-93.6243726,42.031077
527425110,804 Top-O-Hollow Rd,-93.6223145,42.0564784
902327070,803 Duff Ave,-93.6108778,42.0291833
903425270,616 Ridgewood Ave,-93.6251642,42.0274205
534127230,2729 Cleveland Dr,-93.6349811,42.04912789999999
914478100,700 Diamond Ct,-93.6017778,41.9941843
535301150,1904 Wilson Ave,-93.618258,42.04083
903225150,1226 Northwestern Ave,-93.6254413,42.034211
527402220,3316 Garner Ave,-93.6261537,42.0549287
904351240,122 Howard Ave,-93.6582245,42.0235537
535452090,1425 Maxwell Ave,-93.607172,42.036694
528108020,3122 Sedwick St,-93.6552343,42.0628311
528427070,3317 Cullen Dr,-93.6444633,42.0556823
902125020,1229 Kellogg Ave,-93.6142809,42.0344076
910201050,1212 Lincoln Way,-93.6274401,42.0226158
527425090,808 Top-O-Hollow Rd,-93.6227499,42.0564646
909277100,2011 Kildee St,-93.6402861,42.0177472
531452070,1408 Indiana Ave,-93.685977,42.035627
528387050,3015 Valley View Rd,-93.6517691,42.05072029999999
905480240,3121 Lincoln Way,-93.6609574,42.0229645
535476350,1522 Linden Dr,-93.6046659,42.0374519
527258010,1316 Kinyon Cir,-93.6294193,42.0587063
906394060,112 Hartford Dr,-93.6888295,42.0232913
909282030,2116 Country Club Blvd,-93.6424637,42.0156689
905225040,1239 Wisconsin Ave,-93.6624229,42.03396679999999
908275130,234 S Franklin Ave,-93.6645223,42.0197986
527226040,4014 Dawes Dr,-93.6229478,42.0606671
903458110,1107 Lincoln Way,-93.6257229,42.023142
535425080,415 Paulson Dr,-93.6062089,42.0409958
907201220,5140 Emerson Dr,-93.687819,42.0195952
903426160,817 Hodge Ave,-93.6219188,42.0294544
905478140,209 Howard Ave,-93.6588186,42.0240757
906475070,234 Parkridge Cir,-93.6825485,42.0255595
907414070,4818 Waller St,-93.6851639,42.0135364
914476050,702 Crystal St,-93.6024504,41.9967534
923251180,413 Teagarden Dr,-93.6061298,41.9878622
528235090,3827 Brickman Ave,-93.643018,42.0598789
527355150,1910 Stevenson Dr,-93.6335691,42.0529464
527454130,1119 Johnson St,-93.6261537,42.0497541
533215020,2509 Bradford Dr,-93.646963,42.046729
526302120,627 River Oak Dr,-93.6192671,42.05309889999999
532378220,1310 Alabama Ln,-93.6717118,42.034908
907420110,908 Poe Ave,-93.6836184,42.0143201
527354100,1915 Stevenson Dr,-93.6341893,42.05274439999999
535404080,1603 Carroll Ave,-93.6092951,42.038427
906223090,1006 Vermont Ct,-93.6818551,42.0310095
527450080,1437 Truman Pl,-93.629208,42.052637
905352030,212 Trail Ridge Rd,-93.6739902,42.0242877
923275040,521 Ely Cir,-93.6047846,41.9892189
906477110,4804 Westbend Dr,-93.6823108,42.024099
908103310,200 Wellons Dr,-93.6753373,42.0206128
531477040,1505 N Dakota Ave,-93.6791409,42.0362146
534176230,2226 Hayes Ave,-93.632883,42.04455979999999
907187060,5200 Cervantes Dr,-93.688583,42.0177507
528385050,3014 Aspen Rd,-93.6521453,42.0515
908204160,238 Village Dr,-93.6653937,42.0195777
924100020,3402 Jewel Dr,-93.6001162,41.9918394
902477120,Address missing,-93.6319131,42.0307812
907401080,917 Tennyson Ave,-93.6881135,42.01417259999999
528108120,3033 Stockbury St,-93.6541452,42.0624217
916403230,2609 Green Hills Dr,-93.6446216,41.9986532
903236040,720 10th St,-93.6213647,42.03109440000001
903475060,519 Northwestern Ave,-93.6227499,42.0263761
527302090,2009 Buchanan Dr,-93.6373366,42.054595
923230120,704 Garnet Dr,-93.6024108,41.9910717
534403420,1912 Bel Air Dr,-93.62769740000002,42.0414018
902304060,709 Clark Ave #1,-93.617386,42.028287
1007100110,2520 E Lincoln Way,-93.5794897,42.0223401
907290090,4614 Webster St,-93.6816966,42.0167967
907203090,4915 Schubert St,-93.6842921,42.0212924
905102060,4018 Quebec St,-93.6733959,42.0331148
907275150,4639 Hemingway Dr,-93.6825683,42.0190099
535152150,2026 Jensen Ave,-93.6177039,42.0430876
528365090,3133 Sycamore Rd,-93.6548383,42.0497925
910200080,121 S Russell Ave,-93.6286078,42.0220187
923225080,3334 Southdale Dr,-93.6051011,41.9920699
906402200,926 Idaho Ave,-93.682918,42.03035800000001
921128050,2624 Cottonwood Rd,-93.6514325,41.9927934
909250160,2321 Baker St,-93.647473,42.0181189
908225170,3319 Tripp St,-93.6625418,42.0202094
906380060,5332 Tabor Dr,-93.6903355,42.0253293
527175130,1711 Top-O-Hollow Rd,-93.633329,42.057022
528480110,2517 Clayton Dr,-93.6428597,42.0514661
528150070,4101 Valley View Rd,-93.6557888,42.0604197
923400040,300 Ken Maril Rd,-93.6080289,41.9863334
910205020,203 S Maple Ave,-93.6254809,42.0214605
535103050,2702 Northwood Dr,-93.6164885,42.0490454
528240150,4010 Brickman Ave,-93.6423268,42.06146680000001
906226120,1001 N Dakota Ave,-93.67908140000002,42.03148460000001
535327140,117 16th St,-93.6116692,42.0384684
528427040,3223 Cullen Dr,-93.6443841,42.055067
528435020,2616 Dalton St,-93.6442257,42.0539908
534431130,803 16th St,-93.6216813,42.0385399
923203110,3322 Emerald Dr,-93.607935,41.992253
527356020,2935 Eisenhower Ave,-93.6381127,42.05106809999999
527252090,3807 Hoover Ave,-93.63007,42.05856300000001
527258020,3802 Hoover Ave,-93.6293995,42.0584946
533253060,2020 Pinehurst Dr,-93.648961,42.042306
905107380,1008 Arkansas Ave,-93.67401,42.03164659999999
531375040,5425 Kansas Dr,-93.692218,42.0380746
535355100,427 13th St,-93.6168531,42.0347131
907192120,5421 Clemens Blvd,-93.6922378,42.0163816
528138010,2908 Weston Dr,-93.6522245,42.0614596
908229020,203 State Ave,-93.6594127,42.0213522
528480090,2505 Clayton Dr,-93.6423252,42.0515023
527108070,4302 Harrison Cir,-93.6354363,42.0630724
906226060,1110 Delaware Ave,-93.6794975,42.03207
908275290,3334 Morningside St,-93.6634924,42.01759029999999
531375070,5409 Kansas Dr,-93.6915443,42.0379804
528480070,2512 Kingston Dr,-93.6427409,42.0520491
905300080,733 Arizona Ave,-93.6766717,42.0291495
907203040,201 Rockwell Ave,-93.6835392,42.0216642
535450180,115 E 14th St,-93.6099678,42.0358951
531382070,1340 California Ave,-93.6911083,42.0358313
527216080,4120 Laura Ct,-93.626723,42.061867
906394050,118 Hartford Dr,-93.6888097,42.0235431
527252070,3817 Hoover Ave,-93.6300739,42.058893
534250010,1504 24th St,-93.6304287,42.045371
904100090,2800 Ontario St,-93.655985,42.034251
905453040,218 Crane Ave,-93.6658691,42.0247013
527326150,1709 Buchanan Dr,-93.6324236,42.0555636
909101050,2912 Wood St,-93.6579869,42.0219385
923203140,3328 Emerald Dr,-93.607936,41.991982
906230020,907 N Dakota Ave,-93.6791607,42.0310957
528218060,4221 Crestmoor Ave,-93.6461857,42.062597
906380040,5408 Tabor Dr,-93.6908111,42.0251595
528228360,2304 Westwind Dr,-93.640364,42.062948
532377130,1304 Alberta Ave,-93.6732969,42.0347597
527256040,1303 Kinyon Cir,-93.628687,42.0591349
903400030,829 Ridgewood Ave,-93.6260746,42.0298644
535453200,1516 Maxwell Ave,-93.6066244,42.0374871
528240080,3903 Westlawn Dr,-93.6416323,42.0602703
534476320,1530 Curtiss Ave,-93.6244518,42.03787330000001
902125080,1203 Kellogg Ave,-93.6142017,42.0334057
528327010,3124 Almond Rd,-93.6536502,42.0553909
916455070,2909 White Oak Dr,-93.6470766,41.9962561
535350030,618 16th St,-93.6195046,42.0381063
905226170,1248 Wisconsin Ave,-93.6617892,42.0342188
528488140,2612 Clayton Dr,-93.6439881,42.0511408
528228580,2420 Lakeside Dr,-93.642068,42.06302
527453130,1113 Kennedy St,-93.626571,42.050794
534127210,2741 Cleveland Dr,-93.6343873,42.0493398
531452020,1308 Indiana Ave,-93.6861417,42.0348392
911175430,313 S 4th St,-93.6142413,42.0192252
531452180,1528 Indiana Ave,-93.6859762,42.0372898
902300110,813 Wilson Ave,-93.6186735,42.0294406
924152030,3715 Jewel Dr,-93.6003734,41.98883499999999
902110120,916 Wilson Ave,-93.6181195,42.0308488
528439080,2511 Yorkshire St,-93.6426617,42.05336459999999
908151040,413 Wellons Cir,-93.6758523,42.0187031
528390020,2948 Cypress Cir,-93.6519671,42.0495941
531453140,1501 Illinois Ave,-93.6854809,42.0362435
905226110,3219 Ross Rd,-93.6617892,42.0327895
531363080,5510 Kansas Dr,-93.693158,42.037744
527450520,1208 Truman Pl,-93.6268662,42.0514308
534252040,2303 Melrose Ave,-93.6249663,42.0448867
527453140,1115 Kennedy St,-93.62666,42.050792
531385020,1516 Nebraska Ave,-93.688534,42.03720200000001
534151175,2029 Prairie View E,-93.6375148,42.0425209
914452060,411 Opal Cir,-93.6060902,41.9945132
535426130,621 Carr Dr,-93.604745,42.0393808
905200220,3613 Annear St,-93.6672951,42.03354119999999
903425280,622 Ridgewood Ave,-93.6251642,42.0276137
527326130,1717 Buchanan Dr,-93.6330809,42.0554052
902105110,1112 Clark Ave,-93.6167344,42.0327467
528477050,2525 Kingston Dr,-93.6433546,42.0523965
909282130,707 Beach Ave,-93.639712,42.01573670000001
534402170,1405 Arthur Dr,-93.628212,42.0399951
528228340,2313 Westwind Dr,-93.640875,42.062657
911128180,212 Washington Ave,-93.6150327,42.021171
527404020,1218 Jefferson St,-93.6272027,42.0550694
908103350,215 Wellons Dr,-93.6754957,42.0199123
527126030,4321 Stone Brooke Rd,-93.634643,42.063148
916475040,2320 Suncrest Dr,-93.6478686,41.9951486
905452110,307 S Franklin Ave,-93.6650122,42.018904
533208020,2816 Northridge Ln,-93.647249,42.0479204
902103120,621 11th St,-93.6195046,42.0323119
527359180,2985 Monroe Dr,-93.634015,42.051688
535475020,1531 Linden Dr,-93.6052,42.0377635
909129100,Address missing,-93.6319131,42.0307812
923227100,3330 Jewel Dr,-93.6005118,41.9924069
528150090,3203 Harrison Rd,-93.655472,42.059812
916252170,Address missing,-93.6319131,42.0307812
914475030,627 Crystal St,-93.6030438,41.9971987
923225240,3472 Southdale Dr,-93.6035581,41.9904945
527108060,4301 Harrison Cir,-93.6354165,42.062822
528482090,2307 Clayton Dr,-93.639932,42.051174
527358060,2944 Monroe Dr,-93.6349811,42.0505568
903235100,916 Northwestern Ave,-93.6244122,42.0308053
903225040,1217 Curtiss Ave,-93.6249268,42.0339568
905453080,3520 Story St,-93.6658295,42.0239685
903227080,1204 Marston Ave,-93.623304,42.0334285
908102140,221 Todd Cir,-93.6777343,42.0204783
534275060,2103 Melrose Ave,-93.623304,42.0430466
907202080,5008 Emerson Dr,-93.6849657,42.01941619999999
532351090,4203 Toronto St,-93.6759316,42.0363945
923226300,609 Meadow Pl,-93.6032603,41.9923116
907180130,5333 Cervantes Dr,-93.6912569,42.017513
907412040,4901 Waller St,-93.6855998,42.0141407
535456100,1322 Stafford Ave,-93.6076531,42.03536889999999
528172020,3038 Harrison Rd,-93.6530323,42.0593794
907175080,5315 Thackeray Dr,-93.691338,42.0184629
534427140,1922 Roosevelt Ave,-93.6232644,42.0418505
905200010,3732 Ontario St,-93.6693947,42.0342469
528228555,2421 Lakeside Dr,-93.6421668,42.0634
905300020,4410 Phoenix St,-93.6782296,42.02929049999999
533253030,2008 Pinehurst Dr,-93.649095,42.042088
923228250,723 Garnet Dr,-93.6019143,41.9917646
534128100,1607 Pierce Cir,-93.6321041,42.047992
908103090,206 Abraham Dr,-93.6759712,42.0208244
531369010,5404 Maryland St,-93.6917424,42.0358882
535426350,1810 George Allen Ave,-93.6067447,42.0402676
527210050,1407 Panoramic Ct,-93.629593,42.06086699999999
923225190,3442 Southdale Dr,-93.6040329,41.9909436
923228210,719 Meadow Pl,-93.6014982,41.9918268
902401090,115 E 7th St,-93.6096512,42.0282173
528174080,2902 Harrison Rd,-93.6497891,42.0590079
910200040,103 S Russell Ave,-93.6286474,42.0226357
528294060,3816 Hyde Ave,-93.6408008,42.0584432
902128150,1116 Burnett Ave,-93.6152306,42.03271669999999
535451010,214 E 16th St,-93.6081872,42.0381141
533221060,2717 Hampton St,-93.6463045,42.0461821
535175050,2315 Duff Ave,-93.6144392,42.0452179
909451100,1505 Little Bluestem Ct UNIT 119,-93.6460448,42.0099344
905104210,823 Yuma Ave,-93.6783484,42.0302525
907275080,4539 Hemingway Dr,-93.6806069,42.0190147
907285080,4532 Clemens Blvd,-93.6804286,42.0176874
907285050,4606 Clemens Blvd,-93.6812013,42.017682
528118040,3311 Preston Cir,-93.6569769,42.0606136
907255050,503 Brown Ct,-93.6856394,42.0181581
905105190,822 Yuma Ave,-93.6778135,42.0302117
923201100,601 Jewel Dr,-93.6042703,41.9935264
528120030,3112 Weston Dr,-93.6546799,42.0610727
907135170,5449 Frost Dr,-93.6928521,42.0197042
535478010,510 E 14th St,-93.6052989,42.0351916
535180120,217 20th St,-93.6134103,42.0422763
534426110,1926 Hunziker Dr,-93.6244122,42.0418143
535403150,313 E 16th St,-93.607257,42.0385
531376010,1410 California Ave,-93.6910489,42.0364319
911102170,208 S Walnut Ave,-93.6166552,42.0213132
905475520,309 Colorado Cir,-93.6636112,42.0256232
907175030,5423 Thackeray Dr,-93.692582,42.01831600000001
527212050,4014 Edgewater Dr,-93.6286474,42.0606033
902201110,1212 Carroll Ave,-93.6087016,42.0336943
906201030,1149 Oklahoma Dr,-93.6850054,42.0337479
535325130,209 17th St,-93.6130542,42.0395064
533213040,2723 Bristol Dr,-93.6466608,42.04717489999999
527352150,2108 Stevenson Dr,-93.6382274,42.0517286
903226060,1209 Marston Ave,-93.6238779,42.0337001
923227080,3318 Jewel Dr,-93.6007108,41.992797
907252060,4923 Hemingway Dr,-93.6869491,42.0183511
528102010,4205 Wembley Ave,-93.658878,42.0614798
533208040,2810 Northridge Ln,-93.6470335,42.0476944
534128090,2703 Pierce Ave,-93.6316954,42.0478414
908103260,4117 Aplin Rd,-93.6741883,42.0201086
903231180,1018 Curtiss Ave,-93.6243726,42.0319655
533206050,2813 Bristol Dr,-93.6474987,42.0474883
535403280,1640 Carroll Ave,-93.609866,42.039533
907192030,5313 Clemens Blvd,-93.69015,42.016894
914465060,305 Topaz Ct,-93.6074948,41.9971172
903228120,1214 Roosevelt Ave,-93.622275,42.0338472
903229040,1209 Grand Ave,-93.6206919,42.0337425
535101120,2718 Luther Dr,-93.619387,42.048709
527180040,3629 Fletcher Blvd,-93.6349613,42.0574502
902110080,509 9th St,-93.6176446,42.0303615
902405120,618 Carroll Ave,-93.6085038,42.0276351
924100070,3508 Jewel Dr,-93.5998195,41.9908628
903454020,1214 N 3rd St,-93.6275787,42.024949
527110120,2036 Wyngate Dr,-93.6370397,42.0613808
902136110,111 9th St,-93.6113131,42.03036729999999
907130060,5250 Schubert St,-93.690276,42.0218347
526350040,3109 Grove Ave,-93.6199399,42.0528847
535352090,425 15th St,-93.6167739,42.0372264
907295100,4551 Twain Cir,-93.6805277,42.0164284
528431060,2515 Dalton St,-93.6428993,42.0544383
535126040,2613 Duff Ave,-93.6144787,42.0478429
534477110,1411 Roosevelt Ave,-93.622886,42.0361
528222010,4106 Welbeck Dr,-93.6438891,42.0617818
923203010,3302 Emerald Dr,-93.6080448,41.9929367
535154060,2215 Kellogg Ave,-93.6152947,42.0444128
533125120,3130 Greenwood Rd,-93.65456,42.048421
902301150,830 Wilson Ave,-93.6180799,42.0300001
533250160,2878 Greensboro Cir,-93.6490096,42.0444825
528106010,3332 Stockbury St,-93.6581651,42.0619658
532376040,1304 Garfield Ave,-93.6693551,42.0347117
535151130,2110 Barr Dr,-93.6194388,42.0434688
528240070,3907 Westlawn Dr,-93.641708,42.060459
527184020,1530 Stone Brooke Rd,-93.632023,42.05899700000001
907135230,5430 Frost Dr,-93.6928521,42.0186645
527402150,3323 Jefferson Cir,-93.6264704,42.0553821
532378070,3828 Windsor Ct,-93.6706624,42.0351335
910201020,1224 Lincoln Way,-93.6279745,42.0226183
905103060,3925 Ross Rd,-93.672564,42.0324847
923228110,632 Meadow Pl,-93.6022015,41.9923793
904100170,2925 Ross Rd,-93.6586998,42.0331582
533242090,2311 Camden Dr,-93.6403257,42.04625559999999
528456180,2811 Aspen Rd,-93.64652230000002,42.0509832
907285100,4520 Clemens Blvd,-93.6798937,42.0176852
535104020,2619 Kellogg Ave,-93.6172488,42.04787169999999
528439040,2607 Yorkshire St,-93.6437307,42.0533693
908225320,148 S Franklin Ave,-93.6644827,42.0209977
527216070,4126 Laura Ct,-93.6269306,42.0613694
527451290,1358 Barkley Ct,-93.6282098,42.0516525
907410050,839 Poe Ave,-93.6840741,42.0147885
909254050,603 Ash Ave,-93.6447206,42.0168727
531373060,5426 Tennessee St,-93.6926143,42.0350104
534451130,1414 Summit Ave,-93.629234,42.035795
902206220,916 Duff Ave,-93.6102447,42.0307098
527164020,3823 Columbine Ave,-93.636082,42.0587639
527107130,1952 Wyngate Dr,-93.6354957,42.061391
923225200,3448 Southdale Dr,-93.6039142,41.99087
909251030,2328 Baker St,-93.6477102,42.0177246
907194130,5408 Clemens Blvd,-93.691549,42.015832
907250070,5115 Clemens Blvd,-93.688125,42.0172359
903454080,1207 N 2nd St,-93.6273016,42.0242236
534250335,2313 McKinley Cir,-93.6295974,42.0443545
528108130,3107 Stockbury St,-93.6545413,42.0624091
923230010,601 Garden Rd,-93.6041516,41.989432
909281030,2006 Kildee St,-93.6397318,42.01733970000001
527451320,1346 Barkley Ct,-93.628322,42.05148
535303110,608 Durrell Cir,-93.6189505,42.0394756
528456200,2823 Aspen Rd,-93.6470172,42.0511799
528120010,4120 Valley View Rd,-93.6553927,42.0611273
902207170,911 Maxwell Ave,-93.6069265,42.0306057
923204140,3310 Opal Dr,-93.6072574,41.9927949
906223080,1002 Vermont Ct,-93.6818551,42.0307777
532378050,3900 Windsor Ct,-93.6711378,42.0350411
906204140,1102 Idaho Ave,-93.6829274,42.031681
923202137,107 Garden Rd,-93.6098095,41.9901439
907280040,4616 Hemingway Dr,-93.6815381,42.0185792
528170070,3026 Roxboro Dr,-93.6525215,42.0584192
909451020,1505 Little Bluestem Ct UNIT 103,-93.6469678,42.0098489
902300260,832 Grand Ave,-93.6199993,42.0300363
911226010,130 Cherry Ave,-93.603928,42.0218
535375160,1532 Burnett Ave,-93.6152306,42.03816339999999
527405160,1122 Wheeler St,-93.62651,42.0531411
534200030,1406 Johnson St,-93.6295182,42.04864389999999
528186110,3032 Burnham Dr,-93.652222,42.0573059
527450110,1425 Truman Pl,-93.6290105,42.05271399999999
528292030,2417 Grant Cir,-93.642147,42.05724230000001
535177020,126 24th St,-93.6119462,42.0455279
535478110,515 E 13th St,-93.6050435,42.0347073
528142070,3016 Beckley St,-93.6531552,42.0603683
527276040,3805 Dawes Dr,-93.622552,42.0586332
908127070,227 Dotson Dr,-93.6717122,42.0202069
908186090,3821 Marigold Dr,-93.669836,42.01908299999999
916403290,2721 Burr Oak Cir,-93.6451562,41.9976505
528327070,3016 Almond Rd,-93.6515711,42.0554376
535453040,1511 Glendale Ave,-93.6061496,42.0373475
923276180,636 Garden Rd,-93.6030834,41.9881896
534430110,1605 Roosevelt Ave,-93.6228686,42.0385411
907187030,5213 Cervantes Dr,-93.689206,42.0180825
535383120,1326 Douglas Ave,-93.6120649,42.0355588
902205070,1101 Maxwell Ave,-93.6070794,42.0321613
535453100,1411 Glendale Ave,-93.6061496,42.0361114
528488100,2520 Clayton Dr,-93.6430576,42.0511123
534403370,1902 Bel Air Cir,-93.6266485,42.040952
535455080,201 E 13th St,-93.6087412,42.0347747
532479120,1318 Wisconsin Cir,-93.6617298,42.0351284
531452260,5103 Kansas Dr,-93.6879065,42.0377557
528488130,2606 Clayton Dr,-93.6437703,42.05108970000001
923229010,3401 Southdale Dr,-93.6051011,41.9914127
528382020,2913 Arrowwood Cir,-93.6506999,42.0528009
914478045,3100 Diamond St,-93.6008481,41.994774
535478040,608 E 14th St,-93.6045472,42.0350606
907227080,306 Rockwell Ave,-93.6829844,42.0208319
532376090,1328 Garfield Ave,-93.6692758,42.0356026
907196050,718 Wilder Blvd,-93.6887304,42.0159338
907265100,619 Poe Ave,-93.684134,42.016704
528114050,3218 Weston Dr,-93.6565611,42.06103220000001
907260030,5014 Clemens Blvd,-93.6874518,42.01674999999999
905200510,1219 Garfield Cir,-93.669118,42.03394
527106050,4009 Eisenhower Ave,-93.637968,42.060713
527325160,1624 Buchanan Dr,-93.6328451,42.054448
535403190,217 E 16th St,-93.6081872,42.0384617
907410040,903 Poe Ave,-93.6841576,42.01462679999999
531384070,1311 Nebraska Ave,-93.6897612,42.0352582
528290170,2420 Welbeck Dr,-93.6423054,42.0577006
903457130,108 N Russell Ave,-93.6281242,42.023328
902402250,818 Carroll Ave,-93.6085235,42.0295469
533223050,2504 Eaton Ave,-93.6451958,42.0465648
527376090,1509 Truman Dr,-93.6311412,42.0526089
528168040,3818 Valley View Rd,-93.6546007,42.0586042
528174070,2904 Harrison Rd,-93.6499277,42.0589842
527106140,4008 Berkshire Ave,-93.6385112,42.0607632
909281080,2009 Cessna St,-93.6399694,42.0164434
534250410,2304 Van Buren Ave,-93.6305078,42.0447506
907200250,206 Sandburg Ct,-93.6874227,42.0218875
907200170,5107 Schubert St,-93.6858772,42.0214348
527182190,3904 Stone Brooke Cir,-93.6325861,42.0593786
528290090,3813 Welbeck Dr,-93.6435328,42.0587043
528228440,2408 Westwind Dr,-93.642252,42.062303
905476225,3418 West St,-93.6643242,42.0246732
907260040,5020 Clemens Blvd,-93.6877199,42.0167584
535426150,Address missing,-93.6319131,42.0307812
535376090,217 15th St,-93.6133707,42.0371789
526302040,3113 Northwood Dr,-93.6181986,42.0533256
528188160,3709 Ashton Dr,-93.6505667,42.0572088
527451450,1464 Breckinridge Ct,-93.629771,42.051543
535453150,1422 Maxwell Ave,-93.6065452,42.0364853
907412020,4915 Waller St,-93.6860753,42.0142801
907252220,4701 Hemingway Dr,-93.6828006,42.0190533
535354260,1424 Wilson Ave,-93.618258,42.0364265
910206010,328 S Russell Ave,-93.627885,42.019385
903232030,1119 Roosevelt Ave,-93.6229082,42.0328615
921201060,2311 Cottonwood Rd,-93.6472152,41.9936036
535353040,1335 Wilson Ave,-93.618812,42.0355593
534427040,804 20th St,-93.621899,42.0418742
527368020,2738 Somerset Dr,-93.6392369,42.0493603
905103110,4027 Ross Rd,-93.6738714,42.0324816
528477080,2505 Kingston Dr,-93.6424043,42.0524266
903230120,1005 Curtiss Ave,-93.6248476,42.0314869
906475050,228 Parkridge Cir,-93.682095,42.025573
528429070,3220 Kent Ave,-93.6420876,42.0549853
905426010,3432 Oakland St,-93.6646115,42.0280469
528150080,4017 Valley View Rd,-93.6555512,42.0601184
534450090,1501 Summit Ave,-93.6299042,42.0368419
534403440,1924 Bel Air Dr,-93.6282912,42.0414217
905201080,3425 Ross Rd,-93.6648788,42.0324207
914476380,3010 Turquoise Cir,-93.6020943,41.9954888
533223110,2410 Eaton Ave,-93.6451955,42.0459184
534426040,1909 Roosevelt Ave,-93.6236602,42.04122
527358140,2851 Monroe Dr,-93.6344664,42.0503027
528102030,4221 Wembley Ave,-93.658878,42.0620203
905107320,3909 Arkansas Dr,-93.672263,42.0317269
528228290,2409 Westwind Dr,-93.64229600000002,42.062689
527427210,3405 Polaris Dr,-93.6248872,42.0555864
909100110,109 S Hyland Ave,-93.655865,42.0222632
528228415,2338 Westwind Dr,-93.641366,42.062255
909281130,618 Agg Ave,-93.640682,42.0169232
907202240,307 Schubert Cir,-93.6848667,42.0208683
903400040,821 Ridgewood Ave,-93.6261142,42.0297472
532351060,4133 Toronto St,-93.6751392,42.0362653
532377100,1305 Alabama Ln,-93.6723109,42.034705
527325240,1502 Buchanan Dr,-93.6306068,42.0540352
528390210,3038 Redbud Cir,-93.6507377,42.0512549
532354150,4127 Ontario St,-93.6749895,42.0347583
903452025,1114 N 4th St,-93.6259954,42.0255398
528456240,2847 Aspen Rd,-93.6479676,42.0516132
534225120,2704 Melrose Ave,-93.6244518,42.0484946
906382060,314 Hartford Dr,-93.6888097,42.0250112
528166060,3214 Harrison Rd,-93.6559472,42.0592564
533253180,2866 Torrey Pines Rd,-93.648476,42.043414
528315110,3110 Bayberry Rd,-93.6544739,42.053567
535150280,617 20th St,-93.6193463,42.0423214
902305110,722 Clark Ave,-93.6166552,42.02869279999999
907125040,5419 Schubert St,-93.693008,42.022321
910203020,1312 S 2nd St,-93.6291224,42.0213843
528363020,3226 Sumac Cir,-93.6564225,42.0502828
923202025,3309 Emerald Dr,-93.6086027,41.9927527
528429100,2421 Dalton Cir,-93.641627,42.054569
533236040,2512 Bristol Dr,-93.642931,42.0469744
535151110,2102 Barr Dr,-93.6194452,42.0431101
905377020,117 McDonald Dr,-93.67123680000002,42.0236995
903401020,711 Ridgewood Ave,-93.6257777,42.0280773
906230010,906 Delaware Ave,-93.6795767,42.0310245
534479140,1317 Grand Ave,-93.6207315,42.0352092
909253180,618 Stanton Ave,-93.6482843,42.016412
531379030,5217 Nevada Cir,-93.68969,42.037026
907227090,300 Rockwell Ave,-93.6829844,42.0209865
909282110,2018 Cessna St,-93.6401278,42.0158588
528166120,3301 Foxley Dr,-93.6563631,42.05879909999999
914467050,607 Crystal St,-93.6045076,41.9971915
905427140,3209 Woodland St,-93.6610168,42.026575
527165010,2018 Taylor Cir,-93.6376731,42.056766
527359050,2838 Monroe Dr,-93.6347034,42.0496648
535180030,232 21st St,-93.6140039,42.0427597
902427150,425 E 6th St,-93.6043494,42.0272631
905451300,3642 Story St,-93.6682062,42.02397
903233100,1015 Harding Ave,-93.6216813,42.0318571
902301030,825 Clark Ave,-93.6172884,42.0298319
534275010,2127 Melrose Ave,-93.6244122,42.04347509999999
908152070,300 Wellons Dr,-93.6749609,42.0196396
905104090,1005 Yuma Ave,-93.6770013,42.031609
535375040,1521 Kellogg Ave,-93.6142809,42.0378456
907202220,4922 Schubert St,-93.6850054,42.0211536
907227050,324 Rockwell Ave,-93.6829448,42.0203695
535382020,1327 Douglas Ave,-93.6125489,42.0355536
905403060,427 N Franklin Ave,-93.6651561,42.0275057
531376090,5308 Kansas Dr,-93.6904147,42.0374565
535427070,1724 Meadowlane Ave,-93.6045868,42.0405445
923228270,719 Garnet Dr,-93.6020629,41.9917322
528228445,2412 Westwind Dr,-93.6424399,42.062285
907125020,5407 Schubert St,-93.6924162,42.0223842
533206060,2809 Bristol Dr,-93.64733,42.0474249
528275060,3817 Westlawn Dr,-93.6423449,42.0590508
534403290,1700 Bel Air Dr,-93.6265891,42.0391578
526351100,3010 Grove Ave,-93.6193661,42.051918
534201300,1249 24th St,-93.6280932,42.0458309
527105060,3907 Berkshire Ave,-93.6392605,42.0603437
904302020,2818 Oakland St,-93.6566601,42.02787259999999
527107210,2023 Wyngate Dr,-93.636948,42.0623
534425080,110 Hunziker Cir,-93.6248112,42.0403374
528354110,3216 Tupelo Cir,-93.655905,42.052247
907290250,4717 Twain St,-93.68313,42.016422
528480150,2609 Clayton Dr,-93.6438297,42.0514547
534427010,904 20th St,-93.6229082,42.04182309999999
905106140,806 Arizona Ave,-93.6765259,42.02992440000001
914452120,418 Opal Cir,-93.6057737,41.9939819
907250050,517 Smiley Ave,-93.688126,42.0176749
909425140,1033 Gaskill Dr,-93.6431764,42.0125162
535301080,1823 Clark Ave,-93.6174665,42.0410866
534125120,2537 Eisenhower Ave,-93.6352078,42.0469512
528186090,3044 Burnham Dr,-93.6525637,42.057121
533236070,2506 Bristol Dr,-93.6426507,42.0470047
903228060,1209 Harding Ave,-93.6217605,42.0337089
528351010,3115 Balsam Cir,-93.6576304,42.0524649
916403200,2306 Red Oak Dr,-93.6450176,41.99864059999999
905401020,3517 Oakland St,-93.6658493,42.0285846
535382100,1302 Kellogg Ave,-93.6136873,42.0347353
905476170,216 S Franklin Ave,-93.6645025,42.0202822
527364030,2723 Somerset Dr,-93.639712,42.0491135
526355190,2910 Northwood Dr,-93.6170707,42.0506772
916226090,2106 Ironwood Ct,-93.643916,42.003979
533223020,2510 Eaton Ave,-93.645262,42.046782
908275300,3330 Morningside St,-93.6632151,42.0175605
527451170,1311 Barkley Ct,-93.6274809,42.0519244
907425015,4714 Twain St,-93.682991,42.015927
923276100,719 Garden Rd,-93.6018174,41.9883839
909276010,400 Pearson Ave,-93.6420282,42.0191218
528176070,3701 Bridgeport Dr,-93.6552343,42.0568851
907412080,4811 Waller St,-93.684728,42.0138595
923400110,406 Ken Maril Rd,-93.6064099,41.9863433
923229100,603 Garnet Dr,-93.6044087,41.9897913
903233180,1020 Roosevelt Ave,-93.622275,42.0319929
528231030,3911 Welbeck Dr,-93.6440871,42.06054
909254070,611 Ash Ave,-93.6447206,42.0165635
527455060,1122 Johnson St,-93.625627,42.049513
534478140,803 13th St,-93.621814,42.034769
905108120,3827 Phoenix St,-93.6710189,42.0303707
905377130,214 Hickory Dr,-93.6721678,42.0240368
905201090,3431 Ross Rd,-93.6651362,42.03239320000001
905480210,3107 Lincoln Way,-93.6603237,42.022946
534278070,2102 Furman Dr,-93.6213251,42.0434951
527368010,2754 Somerset Dr,-93.6392369,42.0495147
528188090,3715 Farnham Dr,-93.649997,42.057468
535180130,223 20th St,-93.6136082,42.0422314
533210060,2706 Northridge Pkwy,-93.6456365,42.0485305
527359010,2814 Monroe Dr,-93.6357755,42.0492423
533130130,2406 Ridgetop Cir,-93.6520283,42.0455998
531371050,5429 Tennessee St,-93.6926143,42.0353967
535354050,1415 Clark Ave,-93.6174467,42.03623959999999
902106010,622 11th St,-93.6195046,42.0318869
533213020,2803 Bristol Dr,-93.6470534,42.047234
528456220,2835 Aspen Rd,-93.6474924,42.0513966
907227290,301 Rockwell Ave,-93.6834995,42.0208541
528186010,3140 Burnham Dr,-93.6545017,42.0568891
905104240,803 Yuma Ave,-93.6784637,42.02970699999999
906426090,4720 Dover Dr,-93.6819542,42.0278192
902301120,820 Wilson Ave,-93.6181195,42.0296512
902101010,518 13th St,-93.6180007,42.0342521
527450030,1463 Truman Pl,-93.6297508,42.0525803
535175070,2223 Duff Ave,-93.6143038,42.0447598
528108070,3012 Sedwick St,-93.653472,42.0628292
909281020,2010 Kildee St,-93.6399298,42.01729479999999
533213140,2703 Bristol Dr,-93.6457897,42.0471639
535302070,1823 Burnett Ave,-93.6158835,42.0410591
905480030,3122 Story St,-93.6610366,42.0235415
907200110,5106 Todd Dr,-93.6862734,42.021963
907275030,4512 Hemingway Dr,-93.6794447,42.0185858
907203110,4923 Schubert St,-93.6847676,42.0215089
527127100,1801 Waterbury Cir,-93.632615,42.0630499
528431020,3305 Kent Ave,-93.6428993,42.0552106
535379060,1407 Douglas Ave,-93.6126189,42.0360436
903205085,1010 Brookridge Ave,-93.6271037,42.0321112
531450120,1505 Kentucky Ave,-93.6880171,42.0363553
902205130,1128 Stafford Ave,-93.6075937,42.0328791
904100140,2833 Ross Rd,-93.6574324,42.0337393
923229140,501 Garden Rd,-93.6052,41.9903078
903456060,107 N Russell Ave,-93.628687,42.0231754
528431120,3306 Cullen Dr,-93.6437505,42.0552415
905107220,914 Arkansas Ave,-93.6741685,42.0309462
903458170,118 N Hazel Ave,-93.6265496,42.0235519
534202030,1204 28th St,-93.6266287,42.0480785
527127140,1814 Waterbury Cir,-93.6330611,42.0626841
535101150,2730 Luther Dr,-93.6194452,42.0492122
535402070,1909 Maxwell Ave,-93.6091728,42.0406543
902403070,712 Crawford Ave,-93.6069211,42.0285347
528477070,2513 Kingston Dr,-93.6427211,42.0524166
908127100,4025 Aplin Rd,-93.6723659,42.0200895
902301080,515 8th St,-93.617882,42.0290405
903475100,505 Northwestern Ave,-93.6223937,42.0259237
903226150,1218 Curtiss Ave,-93.6244122,42.033973
902207080,1010 Stafford Ave,-93.6075542,42.0317214
535450210,1412 Duff Ave,-93.610403,42.0361904
535153070,2209 Burnett Ave,-93.6167739,42.0442562
905105170,810 Yuma Ave,-93.6777937,42.0298839
904101170,Address missing,-93.6319131,42.0307812
907290080,4620 Webster St,-93.6819542,42.0167691
526354070,2811 Northwood Dr,-93.6176248,42.0497329
903458060,123 N Maple Ave,-93.6254611,42.02376
532479050,1324 Scott Cir,-93.6604821,42.0351875
527427090,3301 Polaris Dr,-93.625223,42.054449
905109170,3806 Phoenix St,-93.6698984,42.0297981
905479110,108 Colorado Ave,-93.6627002,42.0232181
907187040,5207 Cervantes Dr,-93.6889088,42.0181113
909451040,1505 Little Bluestem Ct UNIT 107,-93.6468011,42.0098942
905475160,3208 Woodland St,-93.6608386,42.0261364
534250370,2200 Van Buren Ave,-93.6299537,42.043957
905377010,121 McDonald Dr,-93.6709991,42.0240934
908208020,301 Sunflower Dr,-93.6679091,42.0199418
531479020,4603 Hutchison St,-93.6805827,42.0353265
909428280,2019 Ashmore Dr,-93.6404247,42.0111541
535454070,133 E 13th St,-93.609216,42.0347598
535304020,1715 Clark Ave,-93.6174467,42.0399092
527131110,4207 Stone Brooke Rd,-93.6337539,42.0614074
534403280,1618 Bel Air Dr,-93.626546,42.038937
527107040,1910 Wyngate Dr,-93.6368813,42.0604206
907270040,608 Poe Ave,-93.6835392,42.0171048
903455140,1127 N 2nd St,-93.6265693,42.024266
907180040,5322 Thackeray Dr,-93.6915052,42.0178557
528106020,3324 Stockbury St,-93.657769,42.0619012
528228285,2413 Westwind Dr,-93.642534,42.062667
907262080,809 Tennyson Ave,-93.6881138,42.015904
923225260,3425 Harcourt Dr,-93.6032218,41.9911429
535383060,117 13th St,-93.6117484,42.0347576
527453050,1015 Kennedy St,-93.625488,42.05081
527107030,3914 Eisenhower Ave,-93.6372574,42.0603121
903236130,711 9th St,-93.6209293,42.0304514
534450180,1413 Summit Ave,-93.6297557,42.0356201
528275080,3809 Westlawn Dr,-93.6427013,42.0587692
909428340,2111 Ashmore Cir,-93.642028,42.011923
528441080,2420 Yorkshire Cir,-93.6415333,42.0529176
527105130,4006 Hyde Ave,-93.6399245,42.0610265
907175060,5405 Thackeray Dr,-93.691818,42.018346
908228010,3232 Lettie St,-93.6614129,42.0213079
905480180,3017 Lincoln Way,-93.6596702,42.0229861
534201240,1213 24th St,-93.6264308,42.0458447
528441020,2421 Yorkshire Cir,-93.6415927,42.0533984
527164090,3814 Brookdale Ave,-93.6366042,42.0584988
909277070,425 Beach Ave,-93.6397318,42.0180739
534400060,1819 Coolidge Dr,-93.6298151,42.0406977
907290210,4637 Twain St,-93.682586,42.016423
906204150,1106 Idaho Ave,-93.6829467,42.0319119
531451150,1307 Indiana Ave,-93.686745,42.034904
528181080,2902 Roxboro Dr,-93.6496109,42.0580676
535106140,427 24th St,-93.6170905,42.0459456
533241010,2506 Sherwood Ave,-93.643216,42.0464344
534276180,2027 Ferndale Ave,-93.6216021,42.0429843
527163010,3835 Brookdale Ave,-93.6370001,42.0592585
907194020,717 Wilder Blvd,-93.6894135,42.0159321
907187010,5225 Cervantes Dr,-93.6897569,42.01807
908151050,417 Wellons Dr,-93.6755354,42.0186359
528102140,3209 Sedwick St,-93.6562442,42.0633202
534125080,2603 Eisenhower Ave,-93.6357332,42.0477139
528321010,3318 Ridgetop Rd,-93.657109,42.054383
914475090,727 Crystal St,-93.601402,41.9972307
534451120,1410 Summit Ave,-93.6290828,42.0357186
902202090,1204 Stafford Ave,-93.607543,42.0333759
909131125,301 Stanton Ave,-93.648799,42.02026
909427230,916 Gaskill Dr,-93.6425429,42.0143139
909475040,2154 Ashmore Dr,-93.6438297,42.0109691
533242030,2425 Camden Dr,-93.6416323,42.0466004
528120170,3127 Beckley St,-93.6549175,42.0607563
902100010,626 13th St,-93.6197816,42.0342347
535179060,202 22nd St,-93.6130937,42.0437925
534276070,2217 Ferndale Ave,-93.6236998,42.04430869999999
905452140,312 Crane Ave,-93.6658691,42.0252808
528387030,3001 Valley View Rd,-93.6520859,42.0501696
534277090,2105 Furman Dr,-93.6217209,42.0438689
534104100,2650 Somerset Dr,-93.6392369,42.04874239999999
902207220,223 E 9th St,-93.6077322,42.0304989
902300215,816 Grand Ave,-93.6199795,42.0294382
534176140,2102 Hayes Ave,-93.6316558,42.0427832
902128160,1122 Burnett Ave,-93.615211,42.032902
527451180,1315 Barkley Ct,-93.627569,42.051989
905402070,3618 Mary Cir,-93.6669782,42.0274862
916382110,3126 Red Fox Road,-93.6528582,41.9935213
534176060,2217 Fillmore Ave,-93.6320912,42.0442758
527302110,3309 Clinton Ct,-93.6369407,42.0549164
909425270,828 Ash Ave,-93.6440079,42.0145381
527404050,3305 Garner Ave,-93.6268662,42.05475180000001
905480150,103 Howard Ave,-93.658779,42.0229179
903231090,1017 Marston Ave,-93.6238185,42.0319829
531375120,5311 Kansas Dr,-93.6904346,42.0378615
906201021,4910 Ontario St,-93.6846883,42.0342602
531371070,5513 Tennessee St,-93.6931317,42.0354362
528390100,2901 Cypress Cir,-93.6504029,42.0503195
906200230,5010 Ontario St,-93.686558,42.034071
907420040,1026 Poe Ave,-93.6842128,42.0131418
916402215,2727 White Oak Dr,-93.6470766,41.99764769999999
907200290,103 Sandburg Ct,-93.6877397,42.02245689999999
908225180,3323 Tripp St,-93.6627002,42.0202044
906380050,5402 Tabor Dr,-93.6905931,42.0252631
535450190,1402 Duff Ave,-93.6104426,42.0358802
528315030,3218 Bayberry Rd,-93.6565809,42.0545255
535103070,2722 Northwood Dr,-93.6169916,42.0492122
905202090,3718 Ross Rd,-93.6689589,42.0320203
907192090,5401 Clemens Blvd,-93.6915244,42.0164818
527158090,3928 Brookdale Cir,-93.6354165,42.0600421
916326040,2508 Timberland Rd,-93.6495119,41.9985562
534403040,1310 20th St,-93.6280141,42.0417394
528220040,2719 Laurel Street,-93.6454741,42.0633385
907201280,407 Thackeray Ave,-93.6870264,42.0196979
528235180,3920 Welbeck Dr,-93.6433822,42.0606951
528231050,3901 Welbeck Dr,-93.6442455,42.0601875
907425010,4716 Twain St,-93.683127,42.015927
905103180,1122 Arizona Ave,-93.6751986,42.0329993
528228450,2414 Westwind Dr,-93.642597,42.062266
906380030,5412 Tabor Dr,-93.691082,42.025101
528445060,2524 Yorkshire St,-93.6431962,42.0529422
909252110,509 Ash Ave,-93.6447602,42.0176829
909179020,601 Hayward Ave,-93.6520859,42.0159822
907230240,Address missing,-93.6319131,42.0307812
909251050,2318 Baker St,-93.6472944,42.0177185
903231010,1125 Marston Ave,-93.6238581,42.033102
528142090,4017 Hastings Ave,-93.6527196,42.060189
907200280,108 Sandburg Ct,-93.6875019,42.02242589999999
528477040,2603 Kingston Dr,-93.6435922,42.052389
903206070,927 Ridgewood Ave,-93.6262725,42.0310557
909428190,2114 Greenbriar Cir,-93.6414739,42.0122996
528112040,3106 Stockbury St,-93.6545215,42.0619272
528142040,3108 Beckley St,-93.654066,42.0603007
902106060,1003 Wilson Ave,-93.6187922,42.0314458
527375100,1632 Truman Dr,-93.632915,42.053166
527105070,2209 Stone Brooke Rd,-93.6392963,42.0600739
909277090,2007 Kildee St,-93.6399694,42.0177959
527110130,2040 Wyngate Dr,-93.6372376,42.0612973
527375210,1500 Truman Dr,-93.6305518,42.0521818
533215030,2507 Bradford Dr,-93.647017,42.046625
906378100,5303 Tabor Dr,-93.6896419,42.02633669999999
527325090,1814 Buchanan Dr,-93.634595,42.054781
526301100,3126 Northwood Dr,-93.617882,42.0538762
535178060,2017 Kellogg Ave,-93.6150327,42.0426888
903430090,803 6th St,-93.6218198,42.0270429
534402140,1824 Arthur Cir,-93.6279745,42.0406592
908225240,223 Hilltop Rd,-93.6637103,42.0206938
534451110,1415 Crescent St,-93.6292016,42.0354445
914467040,603 Crystal St,-93.6048044,41.9972015
527451110,1344 Truman Pl,-93.6281263,42.0524006
907262020,5007 Keats St,-93.6871453,42.0163711
527376110,1607 Truman Dr,-93.631719,42.05266900000001
904301375,520 Forest Glen,-93.6601136,42.0269717
905352070,236 Trail Ridge Rd,-93.6736774,42.0252123
527145090,4028 Fletcher Blvd,-93.633614,42.060591
902427180,413 E 6th St,-93.6051407,42.0272383
903476030,722 6th St,-93.6213449,42.0265942
534400030,1903 Coolidge Dr,-93.6294984,42.0412484
533213120,2707 Bristol Dr,-93.6458689,42.0471614
528290010,3845 Welbeck Dr,-93.6442257,42.0600144
907420060,1014 Poe Ave,-93.6840147,42.0134959
907260010,5002 Clemens Blvd,-93.6869273,42.0167838
906201200,1018 Oklahoma Dr,-93.684544,42.031205
906382020,408 Hartford Dr,-93.688889,42.0258972
532376160,3905 Toronto St,-93.6709397,42.0357813
910202070,113 S Maple Ave,-93.6254809,42.0222332
528150120,3305 Harrison Rd,-93.6565809,42.05969959999999
902101050,1211 Clark Ave,-93.6174071,42.03376859999999
909250070,2316 Knapp St,-93.6471549,42.0189011
535476240,1409 Meadowlane Ave,-93.6040724,42.03573220000001
528228405,2332 Westwind Dr,-93.640973,42.062174
905202230,3604 Ross Rd,-93.6668364,42.0319484
527210060,1401 Panoramic Ct,-93.6292412,42.0608549
528228460,4108 Brickman Ave,-93.642882,42.062241
528112020,3120 Stockbury St,-93.6552343,42.0619817
528290180,2414 Welbeck Dr,-93.6420678,42.0577081
907254050,505 Poe Cir,-93.6844109,42.0181975
904100040,2908 Ontario St,-93.6579275,42.0341678
534126060,2645 Cleveland Dr,-93.634079,42.048656
535402010,104 E 20th St,-93.610355,42.0417879
534403080,1218 20th St,-93.626787,42.0417781
532351140,4301 Toronto St,-93.677205,42.036535
903426010,1012 9th St,-93.6241945,42.0299815
531367050,5505 Maryland St,-93.692872,42.0364507
533213130,2705 Bristol Dr,-93.645838,42.047193
907185060,5218 Thackeray Dr,-93.6887499,42.0184944
905427010,3312 Oakland St,-93.6623833,42.0280189
908102100,202 S Dakota Ave,-93.6783484,42.0210189
527145080,4024 Fletcher Blvd,-93.633712,42.060515
534250300,2323 McKinley Cir,-93.6297557,42.04500609999999
905301050,4200 Arizona Cir,-93.6755965,42.0286994
534202180,1231 25th St,-93.6273412,42.0466657
531450170,1531 Kentucky Ave,-93.6880567,42.0373583
533212120,2607 Stange Rd,-93.6452354,42.0473746
902109120,627 9th St,-93.6198608,42.0304077
535450310,1524 Duff Ave,-93.6104228,42.0378315
903201030,"Andy Larson, 1228 Orchard Dr",-93.6284495,42.0336913
533236060,2508 Bristol Dr,-93.64274,42.0469043
908102130,213 Todd Cir,-93.6778179,42.0206729
905105070,911 Arizona Ave,-93.6763278,42.03093519999999
533241030,2509 Camden Dr,-93.6426617,42.046452
923228260,721 Garnet Dr,-93.6019898,41.9917497
534204030,2509 Melrose Ave,-93.6249663,42.0467792
535477020,1534 Meadowlane Ave,-93.6035186,42.0379128
907192130,5427 Clemens Blvd,-93.6925351,42.0163528
534151120,2137 Prairie View E,-93.6378117,42.0429943
908102170,237 Todd Cir,-93.6777937,42.0198388
907401050,905 Tennyson Ave,-93.688121,42.014791
902105060,1103 Burnett Ave,-93.6158638,42.0322718
534431050,720 Murray Dr,-93.621424,42.0390308
528344060,3211 Magnolia Cir,-93.652845,42.053014
909452114,1309 Big Bluestem Ct,-93.6452354,42.0105188
909455040,1506 Little Bluestem Ct,-93.646275,42.009134
534276190,2021 Ferndale Ave,-93.6216021,42.0428298
907253060,4916 Hemingway Dr,-93.686189,42.018354
902329090,700 Kellogg Ave,-93.6134894,42.0280968
527453160,1119 Kennedy St,-93.626837,42.05079
903233080,1021 Harding Ave,-93.6216615,42.0321474
528292060,2416 Grant Cir,-93.6421074,42.0567416
909256120,715 Lynn Ave,-93.6465816,42.0155772
906223220,1003 Vermont Ct,-93.6824297,42.0307787
535153150,2312 Clark Ave,-93.6173082,42.0453402
527163080,3804 Eisenhower Ave,-93.6377127,42.0583865
907414080,4812 Waller St,-93.6849261,42.01350540000001
527402090,1309 Jefferson St,-93.6280983,42.0555477
535426260,1605 Crestwood Cir,-93.6060111,42.03876169999999
528322020,3240 Evergreen Rd,-93.6565809,42.0532899
908152180,407 Jeffrey Ln,-93.6746637,42.019282
909131170,327 Stanton Ave,-93.6487194,42.0194892
527146135,4019 Stone Brooke Rd,-93.6315766,42.0603179
907255010,527 Brown Ct,-93.6857385,42.0172856
528142110,3049 Harrison Rd,-93.6534918,42.0599522
533223030,2508 Eaton Ave,-93.645261,42.04670309999999
907131120,5312 Norris St,-93.6907912,42.020775
534201130,2507 Tyler Ave,-93.628215,42.0467381
528366050,3120 Sycamore Rd,-93.6540462,42.0493543
528340030,3031 Bayberry Rd,-93.6532344,42.0537244
903475020,924 6th St,-93.6237959,42.0266072
908152290,403 Beedle Dr,-93.6734752,42.0188563
527163100,3812 Eisenhower Ave,-93.6377523,42.0587327
916477020,2402 Sundown Dr,-93.6484823,41.9940274
535456010,1325 Maxwell Ave,-93.6071783,42.0355383
534129080,1700 Pierce Ct,-93.6313985,42.0462094
535101020,2721 Kellogg Ave,-93.6187527,42.048983
528320060,3327 Goldenrod Cir,-93.6582693,42.0538024
903234220,1106 Harding Ave,-93.6211668,42.0324141
911370520,1516 Golden Aspen Dr,-93.615985,42.008806
528218020,4309 Crestmoor Ave,-93.6466608,42.06323829999999
902325050,817 Kellogg Ave,-93.6141226,42.0296223
905427070,543 Forest Glen,-93.6608359,42.0280295
907252050,4927 Hemingway Dr,-93.6869075,42.0181175
907253130,4730 Hemingway Dr,-93.68399490000002,42.0185779
903429080,702 Hodge Ave,-93.6213449,42.0279851
527451060,1450 Truman Pl,-93.6294609,42.0523069
907418040,822 Poe Ave,-93.6834599,42.0153685
911226030,116 Cherry Ave,-93.6041021,42.022219
535402230,133 E O'Neil Dr,-93.6089983,42.0401165
527427230,3409 Polaris Dr,-93.6245903,42.0556151
903204030,1212 13th St,-93.6263121,42.0343381
923225360,548 Meadow Ct,-93.6039012,41.9917414
903202120,1036 Ridgewood Ave,-93.6263121,42.0325611
527455050,1124 Johnson St,-93.625667,42.049453
903231190,1024 Curtiss Ave,-93.6243726,42.03212
528275110,3814 Brickman Ave,-93.6429785,42.05918519999999
906202040,1118 Oklahoma Dr,-93.6852768,42.03236039999999
902401130,Address missing,-93.6319131,42.0307812
528382030,2907 Arrowwood Cir,-93.6503831,42.0528495
907200190,5113 Schubert St,-93.6863131,42.0214981
531451110,1405 Indiana Ave,-93.686755,42.035508
906340130,5217 Tabor Dr,-93.688889,42.0267085
923400025,202 Ken Maril Rd,-93.6089417,41.9863214
528480130,2527 Clayton Dr,-93.6433744,42.0514498
534277070,2119 Furman Dr,-93.6216021,42.0442202
907203060,4901 Schubert St,-93.6834995,42.0212405
528480160,2615 Clayton Dr,-93.6440475,42.0514671
907135050,5440 Frost Dr,-93.6923964,42.0193904
916403010,2726 White Oak Dr,-93.6464431,41.99766779999999
528482020,2422 Kingston Dr,-93.6415135,42.0520494
905451320,3630 Story St,-93.6677507,42.0239652
907135260,5418 Frost Dr,-93.6920595,42.0187637
527455280,2810 Northwestern Ave,-93.6265496,42.0487761
527451400,1318 Barkley Ct,-93.6276116,42.0515607
528290030,3837 Welbeck Dr,-93.6442059,42.0596482
535154080,327 22nd St,-93.6153889,42.044068
909276110,2007 Country Club Blvd,-93.6399694,42.01926419999999
914476010,622 Crystal St,-93.6035383,41.9967
535451210,1430 Carroll Ave,-93.6087016,42.0368619
916402115,2507 White Oak Dr,-93.6461263,41.9997651
527375160,1608 Truman Dr,-93.6321308,42.0521915
527252080,3811 Hoover Ave,-93.630072,42.058728
916380060,3107 Red Fox Road,-93.6534126,41.9941222
533125080,3133 Maplewood Rd,-93.654875,42.04808
908275180,317 Hilltop Rd,-93.6637103,42.0194574
528348030,2910 Bayberry Rd,-93.650346,42.053255
907252190,4717 Hemingway Dr,-93.6836184,42.0190343
527190220,1601 Woodhaven Cir,-93.6319725,42.0583748
534425015,1925 Hunziker Dr,-93.6249861,42.0417769
528172060,3016 Harrison Rd,-93.6518483,42.0592514
909455060,1510 Little Bluestem Ct,-93.646557,42.00917099999999
527164120,3832 Brookdale Ave,-93.6364854,42.0590431
534477270,1504 Marston Ave,-93.623335,42.036972
527105050,3913 Berkshire Ave,-93.6392121,42.06051129999999
906394040,124 Hartford Dr,-93.6888295,42.0237549
902206240,922 Duff Ave,-93.6102843,42.0310177
909253010,2332 Donald St,-93.6478884,42.0167723
909279080,2108 Hughes Ave,-93.6428751,42.0168756
907290040,621 Shelley Ave,-93.68303,42.016875
535457020,1315 Glendale Ave,-93.6061496,42.0351843
902204120,1120 Carroll Ave,-93.6086225,42.03276959999999
535301170,1912 Wilson Ave,-93.6181986,42.0411988
923228230,727 Garnet Dr,-93.6017804,41.9918196
923202060,3405 Emerald Dr,-93.6086818,41.9918997
904302260,250 Campus Ave,-93.6566799,42.0271186
909275250,430 Ash Ave,-93.6439683,42.0180944
531452080,1412 Indiana Ave,-93.6859786,42.0357543
528138020,4112 Hastings Ave,-93.6521651,42.0611719
905101330,3915 Quebec St,-93.6722733,42.0335565
916475110,2321 Sundown Dr,-93.6478488,41.9945113
534128020,1630 Johnson St,-93.6329099,42.0486665
909475300,2133 Coneflower Ct,-93.6439287,42.0091689
527358090,2966 Monroe Dr,-93.6345654,42.0512071
909250120,419 Lynn Ave,-93.6467004,42.0183942
909254150,620 Lynn Ave,-93.6461065,42.0162878
905202190,1010 Jarrett Cir,-93.667554,42.031662
527353060,2129 Stevenson Dr,-93.638333,42.05248599999999
905478220,3123 Story St,-93.6605613,42.023943
902456015,115 Center Ave,-93.6070398,42.0234697
916402015,2505 Green Hills Dr,-93.6450374,41.9997803
905426100,413 Hawthorne Ave,-93.6629775,42.0269955
923228220,721 Meadow Pl,-93.601443,41.9918749
527182020,3916 Fletcher Blvd,-93.634231,42.059599
528175060,2905 Roxboro Dr,-93.64976,42.05857899999999
909451180,1505 Little Bluestem Ct UNIT 106,-93.6466105,42.0095691
908102040,234 S Dakota Ave,-93.678304,42.019937
903230110,1011 Curtiss Ave,-93.6248872,42.0316789
906223210,1007 Vermont Ct,-93.6824098,42.0309918
527377030,1509 Jackson Dr,-93.6310791,42.049934
905101260,3815 Quebec St,-93.6704052,42.0335699
903426180,807 Hodge Ave,-93.6219665,42.02912250000001
916475020,2402 Suncrest Dr,-93.6484742,41.9950894
905200490,1210 Garfield Cir,-93.6688228,42.0336029
905401045,516 Oliver Cir,-93.6658739,42.02940419999999
902205090,1106 Stafford Ave,-93.6075542,42.0323395
910205130,210 S Hazel Ave,-93.6264704,42.0211974
528280130,2427 Welbeck Dr,-93.6423449,42.0581627
534127130,2638 Cleveland Dr,-93.6335163,42.0483246
526353030,3004 Northwood Dr,-93.6169916,42.051452
903481100,1017 N 2nd St,-93.6246101,42.0242312
535402120,1809 Maxwell Ave,-93.6078939,42.0400162
527302210,3314 Clinton Ct,-93.63623280000002,42.0551708
532378130,1309 Garfield Ave,-93.6699097,42.03488710000001
902301130,824 Wilson Ave,-93.618159,42.0297659
902103100,611 11th St,-93.6190444,42.032287
535454100,115 E 13th St,-93.6099282,42.0347374
909250040,2324 Knapp St,-93.6477098,42.0188839
902325070,803 Kellogg Ave,-93.614083,42.0291213
533125140,3118 Greenwood Rd,-93.653808,42.04842600000001
924100060,3502 Jewel Dr,-93.5997745,41.9910916
533251120,2810 Pinehurst Cir,-93.645728,42.0445009
907414020,4914 Waller St,-93.686214,42.0138699
535451110,1415 Stafford Ave,-93.6081279,42.0363584
535302130,1802 Clark Ave,-93.6168531,42.0405072
905402110,3603 Woodland St,-93.666186,42.0267002
534175100,2207 Hayes Ave,-93.6329621,42.0437076
527164060,3801 Columbine Ave,-93.63608,42.058095
907270050,614 Poe Ave,-93.6835194,42.01689289999999
528178010,3815 Valley View Rd,-93.6552343,42.0585068
907200230,5129 Schubert St,-93.6872641,42.0215062
527162090,3809 Eisenhower Ave,-93.6383461,42.0585595
527450460,1220 Truman Pl,-93.6268959,42.0519222
528106120,3337 Weston Dr,-93.658222,42.0614974
528294070,3808 Hyde Ave,-93.6409196,42.058285
535455090,1312 Carroll Ave,-93.608662,42.0350475
535176070,2204 Duff Ave,-93.6130937,42.0444491
902405070,223 E 6th St,-93.6075739,42.02741320000001
535478090,607 E 13th St,-93.6045868,42.0347504
907202130,5011 Emerson Dr,-93.6851242,42.019952
902100030,618 13th St,-93.6194103,42.0342847
902105050,1111 Burnett Ave,-93.6158638,42.0325423
534252270,2218 Northwestern Ave,-93.6255402,42.0444631
532377050,4004 Toronto St,-93.6726432,42.0355725
534177210,2216 Fillmore Ave,-93.6316162,42.0444839
533221030,2723 Hampton St,-93.6466014,42.046192
909175030,421 Hayward Ave,-93.6520661,42.018282
528164040,3332 Foxley Dr,-93.6583235,42.0584858
527402240,1111 Garner Cir,-93.6260746,42.05466089999999
528181070,2904 Roxboro Dr,-93.649761,42.05803
535152130,2103 Clark Ave,-93.6173082,42.0431773
535353160,1320 Grand Ave,-93.6201378,42.0351892
907420080,1002 Poe Ave,-93.6838562,42.0138101
907410130,705 Poe Ave,-93.6840741,42.0164888
534403410,1904 Bel Air Dr,-93.6273412,42.04129710000001
533205110,2825 Buckingham Ct,-93.6482645,42.0476841
907262050,5025 Keats St,-93.6878982,42.0164242
902405100,604 Carroll Ave,-93.6084444,42.0272313
534251280,2117 Northwestern Ave,-93.6261735,42.0436707
533205060,2838 Buckingham Ct,-93.648711,42.047147
907405130,827 Miller Ave,-93.6869075,42.0152194
924100050,3418 Jewel Dr,-93.5998393,41.9912681
923225370,546 Meadow Ct,-93.603968,41.991715
906203120,4811 Idaho Cir,-93.684289,42.03277
903400220,836 Brookridge Ave,-93.6273808,42.030055
911370530,1506 Golden Aspen Dr,-93.615971,42.009076
528235120,3834 Welbeck Dr,-93.643612,42.0596284
532477040,3320 Kingman Rd,-93.661809,42.03728900000001
528228430,2404 Westwind Dr,-93.6419,42.0623
527357110,2918 Eisenhower Ave,-93.6370991,42.0506636
907202100,5000 Emerson Dr,-93.6845695,42.0196607
534127190,2749 Cleveland Dr,-93.6338758,42.0493177
535125070,2720 Thompson Dr,-93.6153097,42.0488209
535401080,1804 Maxwell Ave,-93.6073674,42.0402388
534403400,1909 Bel Air Cir,-93.6270245,42.0414616
908188150,3820 Marigold Dr,-93.6699303,42.018645
527427160,3315 Polaris Dr,-93.6252038,42.0550745
528326060,3109 Almond Rd,-93.6530166,42.05587440000001
531385130,1320 Nebraska Ave,-93.688889,42.0352458
906230030,905 N Dakota Ave,-93.6791607,42.0309412
906426210,611 Chelsea Ct,-93.6799701,42.0274746
527162110,3806 Berkshire Ave,-93.6388608,42.0583888
527276150,917 Top-O-Hollow Rd,-93.6235415,42.0569417
907201230,5136 Emerson Dr,-93.6875416,42.0196814
905104110,925 Yuma Ave,-93.6774735,42.0314116
914476330,3009 Turquoise Cir,-93.6027471,41.9954877
907290160,4623 Twain St,-93.681905,42.016425
907125080,5402 Schubert St,-93.6921784,42.0219668
908188110,3838 Marigold Dr,-93.6702987,42.018647
528172150,3105 Roxboro Dr,-93.6534126,42.059028
535350040,614 16th St,-93.619188,42.0381162
535302140,1812 Clark Ave,-93.6168135,42.04074019999999
528108010,3130 Sedwick St,-93.655571,42.0628397
531375090,5325 Kansas Dr,-93.6911083,42.0379557
526353050,2907 Duff Ave,-93.6163289,42.051446
909276170,2037 Country Club Blvd,-93.6415135,42.01867439999999
528228295,2407 Westwind Dr,-93.642105,42.062692
907202050,5020 Emerson Dr,-93.685679,42.0194706
916477060,Address missing,-93.6319131,42.0307812
905107240,4024 Arkansas Dr,-93.6737525,42.0312106
535305180,1706 Clark Ave,-93.6168333,42.0395615
531453040,1322 Illinois Ave,-93.6848072,42.035338
923277040,3823 Viola Mae Ave,-93.6040922,41.9876361
528435070,2514 Dalton St,-93.6427805,42.0540173
527454120,1117 Johnson St,-93.626086,42.049838
923228290,715 Garnet Dr,-93.6023447,41.9916667
903451090,308 N Russell Ave,-93.6280932,42.0255123
527354050,2000 Polk Dr,-93.6354363,42.0531104
526351010,630 River Oak Dr,-93.6193859,42.0526704
908128110,4023 Marigold Dr,-93.672762,42.0190722
905427050,3218 Oakland St,-93.6613139,42.0279371
923230200,736 Garnet Dr,-93.6011328,41.9914306
528228565,2415 Lakeside Dr,-93.641767,42.063391
906402070,4929 Utah Dr,-93.68543,42.0291673
528431070,2523 Dalton St,-93.6431764,42.0544295
532378120,1313 Garfield Ave,-93.6698955,42.0350719
907290020,609 Shelley Ave,-93.6828853,42.0173769
905106210,922 Arizona Ave,-93.6755354,42.0308832
534276290,2030 Melrose Ave,-93.6225124,42.0432646
528458140,2731 Cambridge Dr,-93.647928,42.0504173
903453080,206 N Riverside Dr,-93.6295776,42.0242485
910203290,210 S Riverside Dr,-93.6292609,42.0211674
534226060,2402 Melrose Ave,-93.624432,42.0458884
534178010,1411 20th St,-93.6299141,42.0421816
907401060,909 Tennyson Ave,-93.6880567,42.014603
911225110,119 Cherry Ave,-93.6045175,42.0220708
908250030,409 S Franklin Ave,-93.6649976,42.0180061
909281010,2014 Kildee St,-93.6402861,42.0172449
914475010,619 Crystal St,-93.6035977,41.99722
923225050,3322 Southdale Dr,-93.6050418,41.99247769999999
916455170,2409 Suncrest Dr,-93.6488189,41.9955823
534451170,1430 Summit Ave,-93.6293995,42.0363267
909175080,507 Hayward Ave,-93.6520067,42.0172985
906225210,913 Delaware Ave,-93.6801909,42.03114
903234090,1023 Grand Ave,-93.6206523,42.0321212
907251090,522 Smiley Ave,-93.687432,42.017463
905475500,306 Colorado Cir,-93.663104,42.0255063
528458180,2826 Cambridge Dr,-93.6485813,42.0511496
909252170,2225 Donald St,-93.6456709,42.0171903
906425045,821 Delaware Ave,-93.6802107,42.0298453
903228150,1226 Roosevelt Ave,-93.6222729,42.0342507
534400050,1827 Coolidge Dr,-93.629637,42.0408771
914452090,431 Opal Cir,-93.6052594,41.9943846
528326030,3127 Almond Rd,-93.65393290000002,42.0558098
905402090,423 Oliver Ave,-93.6661464,42.0273969
907227060,318 Rockwell Ave,-93.6829448,42.0205241
905102010,4122 Quebec St,-93.674743,42.03299459999999
907255020,521 Brown Ct,-93.6857979,42.0174575
528315090,3122 Bayberry Rd,-93.6549769,42.0538235
528482010,2428 Kingston Dr,-93.64185,42.052058
535304170,1712 Wilson Ave,-93.6182382,42.0397684
528174030,2916 Harrison Rd,-93.650555,42.059015
535402330,1912 Duff Ave,-93.6103634,42.0415608
903226170,1226 Curtiss Ave,-93.6244122,42.0342434
911104060,317 Washington Ave,-93.6156461,42.0195095
906403060,4920 Utah Dr,-93.684765,42.029609
908102320,231 Abraham Dr,-93.6766249,42.0200501
535454050,1315 Carroll Ave,-93.6092555,42.0351835
909276210,406 Pearson Ave,-93.6421668,42.0189049
528250030,4007 Hyde Ave,-93.640641,42.061048
911175360,Address missing,-93.6319131,42.0307812
531375130,5305 Kansas Dr,-93.690125,42.0380243
907201060,5124 Schubert St,-93.6869867,42.0210901
527208010,1408 Edgewater Ct,-93.6290234,42.0612672
902402150,217 E 7th St,-93.6076531,42.0282606
528174010,2922 Harrison Rd,-93.6508073,42.0590425
903233120,1005 Harding Ave,-93.6216813,42.0315867
528490080,2312 Clayton Dr,-93.640149,42.0507142
527357180,3008 Eisenhower Cir,-93.637289,42.051736
532354090,1319 Alberta Ave,-93.6740734,42.0352201
527354200,3112 Eisenhower Ave,-93.6370199,42.0529059
903233050,1111 Harding Ave,-93.621711,42.03258049999999
535378020,1425 Kellogg Ave,-93.6142413,42.036688
528250070,3909 Hyde Ave,-93.6405237,42.060344
535353240,1432 Grand Ave,-93.6200587,42.0368527
528240060,3911 Westlawn Dr,-93.64173300000002,42.060628
903228040,1217 Harding Ave,-93.6217605,42.0339793
533252130,2802 Torrey Pines Cir,-93.645902,42.042789
535325290,1611 Douglas Ave,-93.6126585,42.0387849
907401090,5020 Waller St,-93.6878586,42.014107
908225290,210 S Franklin Ave,-93.6644232,42.0205166
905200290,1123 Scholl Rd,-93.66577,42.0330683
535179120,221 21st St,-93.6134499,42.0431634
905103030,3907 Ross Rd,-93.671732,42.0324726
907262060,801 Tennyson Ave,-93.688136,42.0163007
909254090,619 Ash Ave,-93.6447206,42.016293
909175100,517 Hayward Ave,-93.6520661,42.0169682
923276250,615 Duluth Driveway,-93.6030339,41.98766
527401130,1116 Top-O-Hollow Rd,-93.6265496,42.0563835
534201040,1404 28th St,-93.6292016,42.0478429
908127120,220 Beedle Dr,-93.6729205,42.0204582
905105260,932 Yuma Ave,-93.6769617,42.0311853
904351200,2919 Lincoln Way,-93.6580859,42.0229592
902207110,1009 Maxwell Ave,-93.6070794,42.0317363
902100110,1203 Wilson Ave,-93.6187922,42.0334546
902105010,418 12th St,-93.6164574,42.0330258
909426060,2019 Friley Rd,-93.6404445,42.0150759
534401140,1403 Coolidge Dr,-93.6281724,42.0392624
527377110,1642 Johnson St,-93.6329027,42.0492515
908102290,207 Abraham Dr,-93.6765655,42.020844
907252120,4831 Hemingway Dr,-93.6855205,42.019012
535451170,1410 Carroll Ave,-93.6087016,42.0361666
903425245,600 Ridgewood Ave,-93.6251247,42.0269581
902107050,511 10th St,-93.617648,42.031501
531477020,1515 N Dakota Ave,-93.6791013,42.0365249
905104180,903 Yuma Ave,-93.6783682,42.030812
909177120,538 Hayward Ave,-93.6513533,42.0162953
528228375,2314 Westwind Dr,-93.6403629,42.062531
906475170,4915 Westbend Dr,-93.6838562,42.0250926
534451150,1422 Summit Ave,-93.6293203,42.0360588
535375010,316 16th St,-93.6146172,42.0380861
909455030,1504 Little Bluestem Ct,-93.646132,42.0091279
528354050,3215 Tupelo Cir,-93.655555,42.052668
534455080,1304 16th St,-93.6270245,42.0380626
903201090,1115 Orchard Dr,-93.6281724,42.0333137
910226060,208 S Maple Ave,-93.6249268,42.0212461
916125425,3265 Dartmoor Rd,-93.658466,41.998964
534128210,2513 Pierce Ave,-93.6330611,42.04662039999999
528328100,3403 Honeysuckle Rd,-93.6512741,42.0546168
903429010,712 8th St,-93.6208106,42.02863929999999
531384030,5234 Texas Cir,-93.6905931,42.03492079999999
528110020,3326 Sedwick St,-93.657769,42.0628278
532351050,4127 Toronto St,-93.6749014,42.0362343
527328010,1702 Top-O-Hollow Rd,-93.6330021,42.0562692
902201090,207 E 12th St,-93.6086102,42.0333934
534127270,2718 Eisenhower Ave,-93.6360697,42.0491515
531379050,5229 Nevada Cir,-93.6902828,42.0370999
907135080,5454 Frost Dr,-93.6923765,42.0199127
908152280,409 Beedle Dr,-93.6734752,42.0187017
905106150,812 Arizona Ave,-93.6766447,42.0300752
527454050,1112 Kennedy St,-93.626547,42.050369
923276260,621 Duluth Driveway,-93.6027669,41.9876196
533223010,2512 Eaton Ave,-93.6452354,42.0468725
534475170,1304 Northwestern Ave,-93.6254017,42.0347917
533212020,2629 Stange Rd,-93.6452354,42.0481856
535180020,306 21st St,-93.6142413,42.0427523
527403120,3307 Nixon Ave,-93.6281328,42.054596
528376010,3140 Evergreen Rd,-93.654724,42.05274199999999
527252050,3909 Hoover Ave,-93.630077,42.059222
533221100,2709 Hampton St,-93.6458689,42.0461959
528250060,3913 Hyde Ave,-93.6405039,42.0605183
535378120,1422 Burnett Ave,-93.6152306,42.036541
903427090,713 8th St,-93.6210481,42.0290182
528488120,2602 Clayton Dr,-93.643513,42.0510786
910206110,307 S Hazel Ave,-93.6270641,42.02013549999999
905107110,1009 Mesa Verde Pl,-93.6716859,42.031458
902401030,723 Carroll Ave,-93.6090973,42.0288528
527106150,4014 Berkshire Ave,-93.6385837,42.0609459
534430090,906 Murray Dr,-93.6231655,42.0390533
923225150,3418 Southdale Dr,-93.6043889,41.991319
909475230,2027 Indiangrass Ct,-93.641873,42.009925
908152060,4126 Aplin Rd,-93.6747033,42.0197057
905426200,3433 Woodland St,-93.6642281,42.0267576
909103020,2812 Arbor St,-93.6561848,42.0207014
902330040,703 Duff Ave,-93.610957,42.028215
908152035,4114 Aplin Rd,-93.67401,42.0196699
528292040,2423 Grant Cir,-93.6423054,42.0570828
534276010,2317 Ferndale Ave,-93.6237789,42.0454648
534175010,1818 24th St,-93.6342289,42.0453283
909252150,2217 Donald St,-93.645275,42.0171642
905228020,1115 Iowa Ave,-93.6596503,42.0332439
535180100,2001 Douglas Ave,-93.612734,42.042208
923252080,3905 Minnetonka Ave,-93.6051011,41.9874691
906392100,209 Hartford Dr,-93.6894042,42.0241422
907194010,723 Wilder Blvd,-93.6893725,42.0157105
535402100,1821 Maxwell Ave,-93.6083542,42.0402728
902329070,213 7th St,-93.612797,42.0280992
903234030,1125 Grand Ave,-93.6206523,42.0329711
533130170,2430 Ridgetop Cir,-93.651359,42.04641
534275100,2013 Melrose Ave,-93.6226312,42.0426043
527158020,1911 Stone Brooke Rd,-93.6355279,42.059326
909100170,2905 Wood St,-93.657472,42.0223412
527107010,3902 Eisenhower Ave,-93.6373168,42.0598662
532378180,3825 Ontario St,-93.6709001,42.034701
534479120,1329 Grand Ave,-93.6207117,42.035654
923203100,3320 Emerald Dr,-93.607936,41.992342
902128100,311 11th St,-93.6145974,42.0323889
528172080,3003 Roxboro Dr,-93.6514325,42.058782
528172050,3020 Harrison Rd,-93.6521453,42.0592999
528344100,3220 Magnolia Cir,-93.6521651,42.0532563
905226130,1218 Wisconsin Ave,-93.6617298,42.0332743
907135180,5445 Frost Dr,-93.6928521,42.01954970000001
907180050,5316 Thackeray Dr,-93.691239,42.017908
909252020,2234 Knapp St,-93.6459481,42.01892040000001
534276160,2033 Ferndale Ave,-93.6217209,42.0431737
527225035,4011 Dawes Dr,-93.6236206,42.0603757
923229110,513 Garden Rd,-93.6044879,41.9900208
528240030,4007 Westlawn Dr,-93.6417115,42.0611558
526352080,3006 Kellogg Ave,-93.6181986,42.0516651
534476260,1422 Curtiss Ave,-93.624398,42.036538
905352140,4107 Trail Ridge Cir,-93.674956,42.0246315
531382090,5300 Maryland St,-93.6904346,42.03577569999999
902329030,719 Douglas Ave,-93.612421,42.0286712
535303150,611 16th St,-93.6190693,42.0385448
911370540,1504 Golden Aspen Dr,-93.6159223,42.0091877
535176100,2222 Duff Ave,-93.6136073,42.04494649999999
535457070,1314 Maxwell Ave,-93.606537,42.035099
909250220,418 Stanton Ave,-93.6482846,42.0184598
534450150,1427 Summit Ave,-93.6298745,42.0360413
528290190,2408 Welbeck Dr,-93.6418302,42.057677
902109080,607 9th St,-93.6189505,42.0304364
527453010,1001 Kennedy St,-93.62493,42.050818
903430130,606 Northwestern Ave,-93.6226312,42.0271912
902206040,1021 Carroll Ave,-93.6091368,42.0318649
528292070,2410 Grant Cir,-93.6418302,42.0567117
533223080,2416 Eaton Ave,-93.6453689,42.04628030000001
535153140,2306 Clark Ave,-93.6173082,42.0451084
528221070,4204 Crestmoor Ave,-93.6453146,42.0622772
533352150,1306 Iowa Cir,-93.6589572,42.0346759
528327060,3022 Almond Rd,-93.6519077,42.0554462
528354060,3211 Tupelo Cir,-93.655282,42.0525469
905452040,335 S Franklin Ave,-93.6650053,42.0183533
527425035,908 Top-O-Hollow Rd,-93.6242935,42.0564546
535455060,1303 Stafford Ave,-93.6081476,42.034716
905225090,3309 Ross Rd,-93.6626606,42.032839
528344070,3205 Magnolia Cir,-93.652628,42.052733
527161010,3839 Berkshire Ave,-93.6392963,42.0596492
535125010,2735 Duff Ave,-93.614637,42.0492289
531451280,1512 Kentucky Ave,-93.6874821,42.0367781
528290060,3825 Welbeck Dr,-93.6438495,42.0591576
906203140,4801 Idaho Cir,-93.6836219,42.0326879
902108060,417 10th St,-93.6164178,42.0314045
533212010,2631 Stange Rd,-93.6452354,42.0482628
527450280,1305 Truman Pl,-93.6274377,42.0527762
532354060,4112 Toronto St,-93.6742675,42.0357524
908250040,3413 Coy St,-93.6654729,42.01806819999999
907202140,5015 Emerson Dr,-93.685362,42.0199058
906223140,1034 Vermont Ct,-93.6818551,42.0320912
903236200,918 Roosevelt Ave,-93.6222156,42.0308165
534276360,2128 Melrose Ave,-93.624056,42.043834
907425035,4634 Twain St,-93.682447,42.015929
528458110,2711 Cambridge Dr,-93.6470766,42.0501933
923225390,540 Meadow Ct,-93.604173,41.9916571
903225050,1215 Curtiss Ave,-93.6249663,42.0338397
909451140,1505 Little Bluestem Ct UNIT 114,-93.6462334,42.0095266
906340110,5207 Tabor Dr,-93.6882747,42.0267862
902331010,322 7th St,-93.6148744,42.0277056
909275160,2103 Country Club Blvd,-93.6421668,42.017823
527163020,3831 Brookdale Ave,-93.6371189,42.0591003
535383110,1322 Douglas Ave,-93.6120253,42.0353669
921205070,2304 Cottonwood Rd,-93.6468192,41.9931136
902207150,923 Maxwell Ave,-93.6069607,42.0309287
534252240,2116 Northwestern Ave,-93.6255402,42.0436906
909250150,2317 Baker St,-93.647314,42.0181233
907131070,5305 Norris St,-93.6901571,42.0210658
534477090,1423 Roosevelt Ave,-93.6228488,42.0365138
527451460,1460 Breckinridge Ct,-93.629692,42.05154400000001
909275310,320 Ash Ave,-93.6439683,42.0194081
535476370,1534 Linden Dr,-93.6046659,42.0378768
527427200,3403 Polaris Dr,-93.6250851,42.055503
903430080,611 Hodge Ave,-93.6218099,42.027246
907252020,4939 Hemingway Dr,-93.686967,42.0174639
909252010,2238 Knapp St,-93.6461857,42.0189129
905378040,120 McDonald Dr,-93.6706227,42.0239315
907187080,5212 Cervantes Dr,-93.68908,42.017549
527452190,2921 Northwestern Ave,-93.6274401,42.0495011
908225370,126 S Franklin Ave,-93.6644827,42.0218091
906201050,1141 Oklahoma Dr,-93.685654,42.0336869
907131190,324 Wilder Blvd,-93.6913065,42.0201789
533352170,1314 Iowa Cir,-93.6591355,42.0350758
903484020,1018 N 2nd St,-93.6245705,42.0238461
535106190,515 24th St,-93.6184361,42.045942
528439030,2613 Yorkshire St,-93.6440079,42.0533606
527404140,3210 Nixon Ave,-93.6278953,42.0536767
907275090,4605 Hemingway Dr,-93.6808843,42.0190059
906394020,208 Hartford Dr,-93.68884930000002,42.02415999999999
535152010,2317 Clark Ave,-93.617943,42.045544
531369060,5512 Maryland St,-93.6931296,42.0360368
534127170,2753 Cleveland Dr,-93.6334849,42.049065
527451020,1466 Truman Pl,-93.629773,42.0522941
903458020,1124 N 2nd St,-93.6263912,42.0238273
528315080,3130 Bayberry Rd,-93.655241,42.053913
535175030,310 24th St,-93.6147755,42.045497
906204280,1205 Idaho Ct,-93.683752,42.0335589
534202020,1210 28th St,-93.6269039,42.0479498
527250040,1121 Top-O-Hollow Rd,-93.62651,42.0568868
908188140,3826 Marigold Dr,-93.6700335,42.0186459
535425050,432 E 20th St,-93.6053583,42.0416984
527106010,4033 Eisenhower Ave,-93.6381086,42.06146280000001
528280110,2409 Welbeck Dr,-93.6418302,42.0581018
527166040,2122 Windfield Dr,-93.6389796,42.0579989
908102050,228 S Dakota Ave,-93.678305,42.020123
904100030,2912 Ontario St,-93.6581849,42.0342176
905480090,3022 Story St,-93.6596702,42.023527
914465055,304 Topaz Ct,-93.607527,41.9967646
909176140,2521 Little St,-93.651017,42.0178325
535477060,1512 Meadowlane Ave,-93.6035186,42.0371402
527455030,1128 Johnson St,-93.626046,42.04915099999999
528188150,3705 Ashton Dr,-93.6505675,42.0570938
528490040,2404 Clayton Dr,-93.6411272,42.0509122
527302050,3318 Eisenhower Ave,-93.6376533,42.05528
902402130,713 Crawford Ave,-93.607533,42.02852
528354100,3210 Tupelo Cir,-93.655669,42.0521
902109110,623 9th St,-93.6195837,42.0304164
907290170,4625 Twain St,-93.682041,42.016424
903476100,510 Northwestern Ave,-93.6218792,42.0261717
527212060,4008 Edgewater Dr,-93.628731,42.0603984
534126090,2617 Cleveland Dr,-93.6347435,42.0482086
909276070,2022 Greeley St,-93.6404049,42.0195209
909276070,2022 Greeley St,-93.6404049,42.0195209
534278190,815 Furman Dr,-93.6219583,42.0450587
534204120,2500 Northwestern Ave,-93.6255996,42.0465275
535425040,426 E 20th St,-93.6056748,42.04168850000001
907202160,5027 Emerson Dr,-93.6859564,42.019964
903227070,1201 Roosevelt Ave,-93.6227697,42.033426
531375050,5419 Kansas Dr,-93.6920198,42.03804239999999
535375140,1520 Burnett Ave,-93.6152306,42.0378544
534201230,2407 Northwestern Ave,-93.6261735,42.0458335
906380100,411 Hartford Dr,-93.6894053,42.0258052
535106180,509 24th St,-93.618159,42.0459507
535177100,2136 Duff Ave,-93.612566,42.044254
531363040,5422 Kansas Dr,-93.6922576,42.0376871
909275080,333 Pearson Ave,-93.6428201,42.0191354
910202050,107 S Maple Ave,-93.6254809,42.0225037
907196040,712 Wilder Blvd,-93.6886912,42.0161396
528180070,3039 Burnham Dr,-93.652738,42.057652
527451380,1326 Barkley Ct,-93.6277843,42.0515273
534152100,2130 Prairie View E,-93.6374158,42.0434703
534252070,2217 Melrose Ave,-93.6249663,42.0443846
528290140,2438 Welbeck Dr,-93.6429389,42.0579894
527404180,3304 Nixon Ave,-93.627621,42.054339
904100190,1112 Iowa Ave,-93.6590349,42.0330319
908228040,3218 Lettie St,-93.6607198,42.0213106
902104060,1103 Clark Ave,-93.6173675,42.0322632
527455090,1110 Johnson St,-93.625514,42.050096
528112150,3125 Weston Dr,-93.6552343,42.0615956
534430080,914 Murray Dr,-93.6233238,42.0390483
905101070,4018 Ontario St,-93.6733563,42.0343136
531451030,1511 Indiana Ave,-93.6867093,42.0365518
923225490,3329 Harcourt Dr,-93.6040724,41.9923341
531385060,1418 Nebraska Ave,-93.6885581,42.0364888
907290070,4626 Webster St,-93.6821919,42.0168002
908188120,3834 Marigold Dr,-93.6702106,42.018647
907181100,5402 Cervantes Dr,-93.691667,42.016903
535457090,1326 Maxwell Ave,-93.6066144,42.0352902
902204060,1105 Stafford Ave,-93.6081081,42.0323608
534429030,1914 Ferndale Ave,-93.6210567,42.0416868
902300020,618 9th St,-93.6195046,42.0299553
907254090,4709 Clemens Blvd,-93.6832222,42.0181196
908127060,217 Dotson Dr,-93.6716924,42.02045870000001
534177180,2204 Fillmore Ave,-93.6311808,42.0439183
923400125,412 Ken Maril Rd,-93.6061776,41.9863385
528174060,2908 Harrison Rd,-93.650063,42.0589439
528172070,3010 Harrison Rd,-93.6516701,42.0592378
905229040,3224 Ross Rd,-93.6618684,42.0323234
535327160,127 16th St,-93.6120649,42.0384559
535377090,115 15th St,-93.6116692,42.0372323
916403250,2621 Green Hills Dr,-93.6446216,41.99818930000001
916475100,2315 Sundown Dr,-93.647524,41.994588
908275220,411 Hilltop Rd,-93.6636904,42.0188205
528190010,3602 Farnham Dr,-93.6508638,42.05661629999999
907290180,4629 Twain St,-93.682177,42.016424
909101180,213 S Hyland Ave,-93.6558482,42.0214655
923230190,732 Garnet Dr,-93.6013252,41.9914322
527453150,1117 Kennedy St,-93.626748,42.0507909
923228420,3412 Harcourt Dr,-93.6031229,41.9918613
905108090,3809 Phoenix St,-93.6702068,42.0303773
914453045,328 Crystal St,-93.6059913,41.9949995
535302120,419 18th St,-93.6165365,42.0404785
535456110,1326 Stafford Ave,-93.6076333,42.03554339999999
527328020,1624 Top-O-Hollow Rd,-93.632685,42.0562672
535380050,1415 Duff Ave,-93.6110361,42.0363637
923250210,3714 S Duff Ave,-93.6096512,41.9889504
535454060,1311 Carroll Ave,-93.6092555,42.0350289
534401200,1718 Coolidge Dr,-93.6295578,42.0397595
909250030,2326 Knapp St,-93.6478884,42.01889750000001
527375180,1600 Truman Dr,-93.6314183,42.0521754
905376090,3714 Woodland St,-93.6695531,42.0262451
534476100,1417 Marston Ave,-93.623955,42.036318
528280100,2403 Welbeck Dr,-93.6415531,42.0581105
528228435,2406 Westwind Dr,-93.642094,42.06230499999999
923250060,3715 Emerald Dr,-93.6087016,41.9887095
535152230,2220 Jensen Ave,-93.6184163,42.0446101
906340120,5213 Tabor Dr,-93.6885917,42.026776
527107020,3908 Eisenhower Ave,-93.6372772,42.0600992
528120120,3019 Beckley St,-93.6533334,42.0608066
909425130,1025 Gaskill Dr,-93.6431962,42.01276680000001
528181050,2910 Roxboro Dr,-93.6500113,42.05798739999999
527359160,2888 Monroe Dr,-93.633477,42.05149
907405140,821 Miller Ave,-93.6868679,42.0153753
905226030,1217 Scott Ave,-93.660997,42.0339736
904350045,3002 Woodland St,-93.6585414,42.0259777
535454150,1322 Duff Ave,-93.6104228,42.0353593
909452102,2220 Ash Ave,-93.6458689,42.0115421
909250080,2312 Knapp St,-93.6470172,42.0188865
902305090,712 Clark Ave,-93.6166156,42.0284236
533212050,2623 Stange Rd,-93.6452354,42.0479539
902107030,1009 Clark Ave,-93.617328,42.0316077
914476020,624 Crystal St,-93.6032734,41.9967934
905225080,3301 Ross Rd,-93.6623833,42.0328865
527301245,2211 Buchanan Dr,-93.6396329,42.0545223
527451550,1424 Breckinridge Ct,-93.629026,42.051645
903476090,731 5th St,-93.6217209,42.0260222
902110090,513 9th St,-93.6179216,42.0303914
527132090,4202 Stone Brooke Rd,-93.6331601,42.0616578
527450220,1329 Truman Pl,-93.6278547,42.0526885
909425085,925 Gaskill Dr,-93.643247,42.013958
910200060,113 S Russell Ave,-93.6286474,42.022288
527380240,1501 Reagan Dr,-93.630686,42.0512524
528186030,3126 Burnham Dr,-93.6538681,42.0567773
528106070,3209 Weston Dr,-93.6562442,42.0615828
527163040,3821 Brookdale Ave,-93.6371782,42.0587702
534127140,2644 Cleveland Dr,-93.633456,42.0485339
535376010,218 16th St,-93.6132916,42.0381084
527359070,2850 Monroe Dr,-93.634181,42.0498649
902134060,909 Kellogg Ave,-93.6141622,42.0306255
527404150,3214 Nixon Ave,-93.6278558,42.0539096
534475100,1411 Curtiss Ave,-93.6249861,42.0360602
528363110,3118 Aspen Rd,-93.6544621,42.0513298
916460020,2810 White Oak Dr,-93.6464233,41.9969919
528142140,3113 Harrison Rd,-93.6544621,42.059902
906392070,5322 Durant St,-93.6900977,42.0243324
904101110,1115 Hyland Ave,-93.6560231,42.0324513
907412070,4817 Waller St,-93.6849261,42.0139304
903201080,1111 Orchard Dr,-93.6279745,42.0333972
534401120,1311 Coolidge Dr,-93.6274599,42.03924629999999
902207140,925 Maxwell Ave,-93.6071585,42.03111570000001
908127040,205 Dotson Dr,-93.6717122,42.0208251
531376070,1520 California Ave,-93.6909498,42.0374973
903456090,102 N Riverside Dr,-93.6295974,42.0229921
527301170,2322 Buchanan Dr,-93.6391578,42.0560047
528240130,4002 Brickman Ave,-93.6423252,42.0610784
528275070,3813 Westlawn Dr,-93.6425033,42.0588913
904302010,2822 Oakland St,-93.6568185,42.0278676
902306120,621 Clark Ave,-93.6172488,42.0277082
534251030,2233 McKinley Ct,-93.6284891,42.0438487
902406020,321 E 6th St,-93.6059715,42.0272509
906392080,5318 Durant St,-93.6899194,42.02435750000001
534175080,2219 Hayes Ave,-93.6332392,42.044085
533242080,2317 Camden Dr,-93.6406029,42.0462854
914474020,3001 Sapphire Cir,-93.603934,41.99575979999999
534129040,2522 Pierce Ave,-93.6324871,42.0462716
535402270,113 E O'Neil Dr,-93.6100865,42.0404107
535353060,1317 Wilson Ave,-93.618812,42.0352502
534475250,1428 Northwestern Ave,-93.6254611,42.0368951
527425025,1012 Top-O-Hollow Rd,-93.6247684,42.0563238
902205140,1130 Stafford Ave,-93.6076333,42.0330324
906475200,4927 Westbend Dr,-93.6843911,42.026138
909251090,515 Lynn Ave,-93.6466806,42.0173709
535155110,425 20th St,-93.6168531,42.0423226
527403310,1413 Wheeler St,-93.6298151,42.0535196
527162080,3813 Eisenhower Ave,-93.6383066,42.0587538
905325030,3721 Woodland St,-93.6698106,42.0267585
533253160,2056 Pinehurst Dr,-93.6487205,42.0434918
907125120,5423 Norris St,-93.6928521,42.0214429
903457040,1212 N 2nd St,-93.6274599,42.0238323
902325160,828 Burnett Ave,-93.615191,42.029975
528235050,3915 Brickman Ave,-93.64287,42.0606064
528478040,2413 Kingston Dr,-93.6409196,42.0523771
528240040,4003 Westlawn Dr,-93.6417115,42.0609627
528178090,3210 Foxley Dr,-93.6556898,42.0584344
923277080,3917 Viola Mae Ave,-93.6041322,41.9869631
903235010,1020 10th St,-93.6245705,42.0310707
923275010,500 Garden Rd,-93.6051802,41.9897478
528439060,2523 Yorkshire St,-93.643216,42.053347
907290140,4617 Twain St,-93.681633,42.016426
535126100,2407 Duff Ave,-93.6144787,42.0459891
535325320,211 16th St,-93.6130146,42.0385034
527226010,3906 Dawes Dr,-93.6219979,42.0593843
535354130,1313 Clark Ave,-93.6174071,42.03500469999999
909101070,2908 Wood St,-93.6576304,42.02191120000001
905201030,1235 Michigan Ave,-93.6637895,42.03421300000001
923203190,3410 Emerald Dr,-93.6078311,41.9915205
535383100,1316 Douglas Ave,-93.611878,42.0352109
531376030,1422 California Ave,-93.6910489,42.0368182
902206130,129 E 9th St,-93.6090577,42.0303221
532478020,1616 Amherst Dr,-93.6595315,42.0373036
532377140,1308 Alberta Ave,-93.6732969,42.0349142
528458060,2822 Aspen Rd,-93.6472548,42.0508635
533350020,3128 Kingman Rd,-93.6587196,42.036383
904301100,2912 Oakland St,-93.6578482,42.02791209999999
535403010,104 E O'Neil Dr,-93.6104228,42.0399946
923277030,3819 Viola Mae Ave,-93.6040922,41.9877907
527184110,1512 Stone Brooke Rd,-93.6310628,42.059666
535152060,2225 Clark Ave,-93.6178622,42.0445503
527166010,2218 Windfield Dr,-93.6396922,42.0579764
903206170,914 Brookridge Ave,-93.6273808,42.0309822
534226120,2514 Melrose Ave,-93.6244518,42.0469112
527355060,1942 Stevenson Dr,-93.6352978,42.0522459
909282060,2048 Cessna St,-93.6417115,42.01577
527127150,1818 Waterbury Cir,-93.633282,42.062634
528365070,3145 Sycamore Rd,-93.655571,42.0497113
909475140,2100 Ashmore Dr,-93.6411967,42.010608
906380190,5407 Durant St,-93.6908111,42.0247732
535177110,2130 Duff Ave,-93.6123023,42.0441264
527401160,1104 Top-O-Hollow Rd,-93.6258767,42.0564048
902400110,804 Duff Ave,-93.6100469,42.0293253
527353080,2141 Stevenson Dr,-93.6386629,42.0528347
534278170,803 Furman Dr,-93.6214438,42.0451135
533252020,2824 Greensboro Dr,-93.647546,42.04381799999999
923202220,3312 S Duff Ave,-93.6097106,41.992718
907251100,526 Smiley Ave,-93.687431,42.017237
535451190,1422 Carroll Ave,-93.6086569,42.036524
902103150,Address missing,-93.6319131,42.0307812
902128020,314 12th St,-93.6145974,42.0330456
911102090,233 Washington Ave,-93.6156263,42.0203795
903425340,722 Ridgewood Ave,-93.6253028,42.0285558
527402200,3328 Jefferson Cir,-93.6256788,42.055214
527301080,2101 Buchanan Dr,-93.638267,42.0545076
923275140,3803 Minnetonka Ave,-93.6040329,41.9883532
535475010,1537 Linden Dr,-93.6052,42.0379953
