{"type": "FeatureCollection", "features": [{"id": "5", "type": "Feature", "properties": {"Attraction": "Food/Dining", "code": 2301, "fclass": "restaurant", "geo_code": "23", "name": "Tropical Sno", "osm_id": "161081019"}, "geometry": {"type": "Point", "coordinates": [-93.6210698, 42.0510808]}}, {"id": "5950", "type": "Feature", "properties": {"Attraction": "Food/Dining", "code": 2301, "fclass": "restaurant", "geo_code": "23", "name": "The Iowa Stater", "osm_id": "757223919"}, "geometry": {"type": "Point", "coordinates": [-93.6427974, 42.0007392]}}, {"id": "5972", "type": "Feature", "properties": {"Attraction": "Food/Dining", "code": 2302, "fclass": "fast_food", "geo_code": "23", "name": "Subway", "osm_id": "760153592"}, "geometry": {"type": "Point", "coordinates": [-93.5859143, 42.0087998]}}, {"id": "5973", "type": "Feature", "properties": {"Attraction": "Food/Dining", "code": 2302, "fclass": "fast_food", "geo_code": "23", "name": "Dairy Queen", "osm_id": "760153706"}, "geometry": {"type": "Point", "coordinates": [-93.5859036, 42.0091266]}}, {"id": "6333", "type": "Feature", "properties": {"Attraction": "Food/Dining", "code": 2301, "fclass": "restaurant", "geo_code": "23", "name": "Fuji", "osm_id": "860693871"}, "geometry": {"type": "Point", "coordinates": [-93.6114407, 42.0069145]}}, {"id": "6334", "type": "Feature", "properties": {"Attraction": "Food/Dining", "code": 2301, "fclass": "restaurant", "geo_code": "23", "name": "Mongollian Grill", "osm_id": "860693950"}, "geometry": {"type": "Point", "coordinates": [-93.6114382, 42.0066186]}}, {"id": "6335", "type": "Feature", "properties": {"Attraction": "Food/Dining", "code": 2301, "fclass": "restaurant", "geo_code": "23", "name": null, "osm_id": "860695041"}, "geometry": {"type": "Point", "coordinates": [-93.611106, 42.0066345]}}, {"id": "6912", "type": "Feature", "properties": {"Attraction": "Food/Dining", "code": 2302, "fclass": "fast_food", "geo_code": "23", "name": "Papa Murphy's", "osm_id": "972508185"}, "geometry": {"type": "Point", "coordinates": [-93.6116438, 42.0230659]}}, {"id": "6913", "type": "Feature", "properties": {"Attraction": "Food/Dining", "code": 2302, "fclass": "fast_food", "geo_code": "23", "name": "Burger King", "osm_id": "972578254"}, "geometry": {"type": "Point", "coordinates": [-93.6126616, 42.0231619]}}, {"id": "6914", "type": "Feature", "properties": {"Attraction": "Food/Dining", "code": 2303, "fclass": "cafe", "geo_code": "23", "name": "Starbucks", "osm_id": "972593630"}, "geometry": {"type": "Point", "coordinates": [-93.6150919, 42.023129]}}, {"id": "6915", "type": "Feature", "properties": {"Attraction": "Food/Dining", "code": 2302, "fclass": "fast_food", "geo_code": "23", "name": "Subway", "osm_id": "972600815"}, "geometry": {"type": "Point", "coordinates": [-93.6138783, 42.0225852]}}, {"id": "6916", "type": "Feature", "properties": {"Attraction": "Food/Dining", "code": 2302, "fclass": "fast_food", "geo_code": "23", "name": "Dairy Queen", "osm_id": "972603204"}, "geometry": {"type": "Point", "coordinates": [-93.6143672, 42.0226037]}}, {"id": "6917", "type": "Feature", "properties": {"Attraction": "Food/Dining", "code": 2302, "fclass": "fast_food", "geo_code": "23", "name": "Taco John's", "osm_id": "972604788"}, "geometry": {"type": "Point", "coordinates": [-93.6172936, 42.0226439]}}, {"id": "6918", "type": "Feature", "properties": {"Attraction": "Food/Dining", "code": 2302, "fclass": "fast_food", "geo_code": "23", "name": "Taco Time", "osm_id": "972607877"}, "geometry": {"type": "Point", "coordinates": [-93.6174854, 42.023158]}}, {"id": "6920", "type": "Feature", "properties": {"Attraction": "Food/Dining", "code": 2302, "fclass": "fast_food", "geo_code": "23", "name": "Bruegger's Bagels", "osm_id": "972615029"}, "geometry": {"type": "Point", "coordinates": [-93.6187576, 42.0232269]}}, {"id": "6923", "type": "Feature", "properties": {"Attraction": "Food/Dining", "code": 2302, "fclass": "fast_food", "geo_code": "23", "name": "Subway", "osm_id": "972642734"}, "geometry": {"type": "Point", "coordinates": [-93.6503193, 42.0221927]}}, {"id": "6924", "type": "Feature", "properties": {"Attraction": "Food/Dining", "code": 2302, "fclass": "fast_food", "geo_code": "23", "name": "Jimmy John's", "osm_id": "972644303"}, "geometry": {"type": "Point", "coordinates": [-93.6503476, 42.0215774]}}, {"id": "7415", "type": "Feature", "properties": {"Attraction": "Food/Dining", "code": 2301, "fclass": "restaurant", "geo_code": "23", "name": "The Cafe", "osm_id": "1292348200"}, "geometry": {"type": "Point", "coordinates": [-93.6437592, 42.0487718]}}, {"id": "8024", "type": "Feature", "properties": {"Attraction": "Food/Dining", "code": 2303, "fclass": "cafe", "geo_code": "23", "name": "Bergie's Espresso Cafe", "osm_id": "1868149731"}, "geometry": {"type": "Point", "coordinates": [-93.6106082, 42.0004888]}}, {"id": "8054", "type": "Feature", "properties": {"Attraction": "Food/Dining", "code": 2303, "fclass": "cafe", "geo_code": "23", "name": "Stomping Grounds", "osm_id": "1933284322"}, "geometry": {"type": "Point", "coordinates": [-93.6503847, 42.0200571]}}, {"id": "8062", "type": "Feature", "properties": {"Attraction": "Food/Dining", "code": 2305, "fclass": "bar", "geo_code": "23", "name": "Paddy's Irish Pub", "osm_id": "1941751171"}, "geometry": {"type": "Point", "coordinates": [-93.6499709, 42.0217049]}}, {"id": "8242", "type": "Feature", "properties": {"Attraction": "Food/Dining", "code": 2305, "fclass": "bar", "geo_code": "23", "name": "West Towne Pub", "osm_id": "2010164763"}, "geometry": {"type": "Point", "coordinates": [-93.6793017, 42.0110521]}}, {"id": "8257", "type": "Feature", "properties": {"Attraction": "Food/Dining", "code": 2302, "fclass": "fast_food", "geo_code": "23", "name": "Little Caesars", "osm_id": "2019320609"}, "geometry": {"type": "Point", "coordinates": [-93.618952, 42.0232273]}}, {"id": "8495", "type": "Feature", "properties": {"Attraction": "Food/Dining", "code": 2302, "fclass": "fast_food", "geo_code": "23", "name": "Subway", "osm_id": "2068610270"}, "geometry": {"type": "Point", "coordinates": [-93.6131766, 42.0111845]}}, {"id": "8496", "type": "Feature", "properties": {"Attraction": "Food/Dining", "code": 2302, "fclass": "fast_food", "geo_code": "23", "name": "Panchero's", "osm_id": "2068624950"}, "geometry": {"type": "Point", "coordinates": [-93.609694, 42.0107986]}}, {"id": "8910", "type": "Feature", "properties": {"Attraction": "Food/Dining", "code": 2303, "fclass": "cafe", "geo_code": "23", "name": "Cafe Beaudelaire", "osm_id": "2400994656"}, "geometry": {"type": "Point", "coordinates": [-93.650427, 42.0226007]}}, {"id": "8911", "type": "Feature", "properties": {"Attraction": "Food/Dining", "code": 2301, "fclass": "restaurant", "geo_code": "23", "name": "Joy's Mongolian Grill", "osm_id": "2400994663"}, "geometry": {"type": "Point", "coordinates": [-93.6515585, 42.0222652]}}, {"id": "9076", "type": "Feature", "properties": {"Attraction": "Food/Dining", "code": 2305, "fclass": "bar", "geo_code": "23", "name": "Blue Owl", "osm_id": "2445161035"}, "geometry": {"type": "Point", "coordinates": [-93.650364, 42.0204027]}}, {"id": "9083", "type": "Feature", "properties": {"Attraction": "Food/Dining", "code": 2301, "fclass": "restaurant", "geo_code": "23", "name": "Jeff's Pizza Shop", "osm_id": "2447728161"}, "geometry": {"type": "Point", "coordinates": [-93.6487202, 42.0225961]}}, {"id": "9136", "type": "Feature", "properties": {"Attraction": "Food/Dining", "code": 2301, "fclass": "restaurant", "geo_code": "23", "name": "Indian Creek Country Club", "osm_id": "2454261449"}, "geometry": {"type": "Point", "coordinates": [-93.4450987, 41.9753588]}}, {"id": "9198", "type": "Feature", "properties": {"Attraction": "Food/Dining", "code": 2301, "fclass": "restaurant", "geo_code": "23", "name": "The Spice", "osm_id": "2481733596"}, "geometry": {"type": "Point", "coordinates": [-93.6156539, 42.0249187]}}, {"id": "9199", "type": "Feature", "properties": {"Attraction": "Food/Dining", "code": 2301, "fclass": "restaurant", "geo_code": "23", "name": "Bar La Tosca", "osm_id": "2481733597"}, "geometry": {"type": "Point", "coordinates": [-93.6155504, 42.0249215]}}, {"id": "9214", "type": "Feature", "properties": {"Attraction": "Food/Dining", "code": 2301, "fclass": "restaurant", "geo_code": "23", "name": "Joe's Pizza", "osm_id": "2503482541"}, "geometry": {"type": "Point", "coordinates": [-93.6795997, 42.0110706]}}, {"id": "9320", "type": "Feature", "properties": {"Attraction": "Food/Dining", "code": 2304, "fclass": "pub", "geo_code": "23", "name": "Mickey's Irish Pub", "osm_id": "2531586091"}, "geometry": {"type": "Point", "coordinates": [-93.6503244, 42.0223645]}}, {"id": "9321", "type": "Feature", "properties": {"Attraction": "Food/Dining", "code": 2301, "fclass": "restaurant", "geo_code": "23", "name": "Mr. Burrito", "osm_id": "2531586092"}, "geometry": {"type": "Point", "coordinates": [-93.650509, 42.0226018]}}, {"id": "9322", "type": "Feature", "properties": {"Attraction": "Food/Dining", "code": 2301, "fclass": "restaurant", "geo_code": "23", "name": "Pizza Pit", "osm_id": "2531586094"}, "geometry": {"type": "Point", "coordinates": [-93.6503274, 42.0210736]}}, {"id": "9323", "type": "Feature", "properties": {"Attraction": "Food/Dining", "code": 2301, "fclass": "restaurant", "geo_code": "23", "name": "Thai Kitchen", "osm_id": "2533115029"}, "geometry": {"type": "Point", "coordinates": [-93.6492364, 42.0212447]}}, {"id": "9328", "type": "Feature", "properties": {"Attraction": "Food/Dining", "code": 2301, "fclass": "restaurant", "geo_code": "23", "name": "May House Cuisine", "osm_id": "2535870248"}, "geometry": {"type": "Point", "coordinates": [-93.6657298, 42.0231795]}}, {"id": "9395", "type": "Feature", "properties": {"Attraction": "Food/Dining", "code": 2304, "fclass": "pub", "geo_code": "23", "name": "Mother's Pub", "osm_id": "2579081015"}, "geometry": {"type": "Point", "coordinates": [-93.6572186, 42.0251823]}}, {"id": "9396", "type": "Feature", "properties": {"Attraction": "Food/Dining", "code": 2305, "fclass": "bar", "geo_code": "23", "name": "Thumbs", "osm_id": "2579081016"}, "geometry": {"type": "Point", "coordinates": [-93.6565039, 42.0251797]}}, {"id": "9398", "type": "Feature", "properties": {"Attraction": "Food/Dining", "code": 2301, "fclass": "restaurant", "geo_code": "23", "name": "West Street Deli", "osm_id": "2579081018"}, "geometry": {"type": "Point", "coordinates": [-93.6562215, 42.0252223]}}, {"id": "9450", "type": "Feature", "properties": {"Attraction": "Food/Dining", "code": 2302, "fclass": "fast_food", "geo_code": "23", "name": "Jimmy John's", "osm_id": "2608958914"}, "geometry": {"type": "Point", "coordinates": [-93.6799783, 42.0110639]}}, {"id": "9462", "type": "Feature", "properties": {"Attraction": "Food/Dining", "code": 2305, "fclass": "bar", "geo_code": "23", "name": "Chicha Shack", "osm_id": "2610209315"}, "geometry": {"type": "Point", "coordinates": [-93.6503013, 42.021682]}}, {"id": "9463", "type": "Feature", "properties": {"Attraction": "Food/Dining", "code": 2305, "fclass": "bar", "geo_code": "23", "name": "Es Tas Bar & Grill", "osm_id": "2610209316"}, "geometry": {"type": "Point", "coordinates": [-93.648301, 42.0209794]}}, {"id": "9486", "type": "Feature", "properties": {"Attraction": "Food/Dining", "code": 2301, "fclass": "restaurant", "geo_code": "23", "name": "+39 Restaurant Market Cantina", "osm_id": "2615864448"}, "geometry": {"type": "Point", "coordinates": [-93.644589, 42.0486571]}}, {"id": "9487", "type": "Feature", "properties": {"Attraction": "Food/Dining", "code": 2301, "fclass": "restaurant", "geo_code": "23", "name": "Salt and Pretzel", "osm_id": "2615864449"}, "geometry": {"type": "Point", "coordinates": [-93.6430514, 42.0487579]}}, {"id": "9488", "type": "Feature", "properties": {"Attraction": "Food/Dining", "code": 2301, "fclass": "restaurant", "geo_code": "23", "name": "Brick City Grill", "osm_id": "2615864450"}, "geometry": {"type": "Point", "coordinates": [-93.6447508, 42.0491559]}}, {"id": "9489", "type": "Feature", "properties": {"Attraction": "Food/Dining", "code": 2301, "fclass": "restaurant", "geo_code": "23", "name": "El Azteca", "osm_id": "2615864451"}, "geometry": {"type": "Point", "coordinates": [-93.6455716, 42.050015]}}, {"id": "9491", "type": "Feature", "properties": {"Attraction": "Food/Dining", "code": 2301, "fclass": "restaurant", "geo_code": "23", "name": "Hy-Vee Cafe", "osm_id": "2616611672"}, "geometry": {"type": "Point", "coordinates": [-93.6201137, 42.0202548]}}, {"id": "9541", "type": "Feature", "properties": {"Attraction": "Food/Dining", "code": 2302, "fclass": "fast_food", "geo_code": "23", "name": "Subway", "osm_id": "2641428647"}, "geometry": {"type": "Point", "coordinates": [-93.6210552, 42.054423]}}, {"id": "9543", "type": "Feature", "properties": {"Attraction": "Food/Dining", "code": 2302, "fclass": "fast_food", "geo_code": "23", "name": "Papa John's", "osm_id": "2641437501"}, "geometry": {"type": "Point", "coordinates": [-93.6211084, 42.0461152]}}, {"id": "9546", "type": "Feature", "properties": {"Attraction": "Food/Dining", "code": 2305, "fclass": "bar", "geo_code": "23", "name": "Moose Lodge", "osm_id": "2643929501"}, "geometry": {"type": "Point", "coordinates": [-93.621872, 42.0777392]}}, {"id": "9565", "type": "Feature", "properties": {"Attraction": "Food/Dining", "code": 2301, "fclass": "restaurant", "geo_code": "23", "name": "Dutch Oven Bakery", "osm_id": "2660265498"}, "geometry": {"type": "Point", "coordinates": [-93.6110897, 42.024383]}}, {"id": "9577", "type": "Feature", "properties": {"Attraction": "Food/Dining", "code": 2301, "fclass": "restaurant", "geo_code": "23", "name": "Kingpin Pizza", "osm_id": "2667706055"}, "geometry": {"type": "Point", "coordinates": [-93.6811095, 42.0107975]}}, {"id": "9623", "type": "Feature", "properties": {"Attraction": "Food/Dining", "code": 2303, "fclass": "cafe", "geo_code": "23", "name": "Whirlybird's", "osm_id": "2698598178"}, "geometry": {"type": "Point", "coordinates": [-93.6535878, 42.0248478]}}, {"id": "9630", "type": "Feature", "properties": {"Attraction": "Food/Dining", "code": 2301, "fclass": "restaurant", "geo_code": "23", "name": "Ge-Angelo's", "osm_id": "2706934881"}, "geometry": {"type": "Point", "coordinates": [-93.6231584, 42.0548981]}}, {"id": "9768", "type": "Feature", "properties": {"Attraction": "Food/Dining", "code": 2305, "fclass": "bar", "geo_code": "23", "name": "Outlaws", "osm_id": "2774594617"}, "geometry": {"type": "Point", "coordinates": [-93.6512255, 42.0212966]}}, {"id": "9782", "type": "Feature", "properties": {"Attraction": "Food/Dining", "code": 2306, "fclass": "food_court", "geo_code": "23", "name": "Memorial Union Food Court", "osm_id": "2798978615"}, "geometry": {"type": "Point", "coordinates": [-93.6458111, 42.0236584]}}, {"id": "9783", "type": "Feature", "properties": {"Attraction": "Food/Dining", "code": 2302, "fclass": "fast_food", "geo_code": "23", "name": "Panda Express", "osm_id": "2798978616"}, "geometry": {"type": "Point", "coordinates": [-93.6456816, 42.0238375]}}, {"id": "9784", "type": "Feature", "properties": {"Attraction": "Food/Dining", "code": 2302, "fclass": "fast_food", "geo_code": "23", "name": "Lance and Ellie's", "osm_id": "2798978617"}, "geometry": {"type": "Point", "coordinates": [-93.6458173, 42.0235471]}}, {"id": "9905", "type": "Feature", "properties": {"Attraction": "Food/Dining", "code": 2301, "fclass": "restaurant", "geo_code": "23", "name": "Wok N Roll", "osm_id": "2880089200"}, "geometry": {"type": "Point", "coordinates": [-93.6499777, 42.0219603]}}, {"id": "10238", "type": "Feature", "properties": {"Attraction": "Food/Dining", "code": 2301, "fclass": "restaurant", "geo_code": "23", "name": "Noodles & Company", "osm_id": "3040219191"}, "geometry": {"type": "Point", "coordinates": [-93.6094747, 42.0185139]}}, {"id": "10272", "type": "Feature", "properties": {"Attraction": "Food/Dining", "code": 2302, "fclass": "fast_food", "geo_code": "23", "name": "Chipotle", "osm_id": "3049794459"}, "geometry": {"type": "Point", "coordinates": [-93.6111136, 42.0176353]}}, {"id": "10379", "type": "Feature", "properties": {"Attraction": "Food/Dining", "code": 2303, "fclass": "cafe", "geo_code": "23", "name": "Vinyl Cafe", "osm_id": "3154706612"}, "geometry": {"type": "Point", "coordinates": [-93.6138569, 42.0247449]}}, {"id": "10612", "type": "Feature", "properties": {"Attraction": "Food/Dining", "code": 2301, "fclass": "restaurant", "geo_code": "23", "name": "Downtown Deli", "osm_id": "3355369068"}, "geometry": {"type": "Point", "coordinates": [-93.6148877, 42.0249414]}}, {"id": "10898", "type": "Feature", "properties": {"Attraction": "Food/Dining", "code": 2303, "fclass": "cafe", "geo_code": "23", "name": "The Roasterie", "osm_id": "3641409028"}, "geometry": {"type": "Point", "coordinates": [-93.6484914, 42.0273575]}}, {"id": "10899", "type": "Feature", "properties": {"Attraction": "Food/Dining", "code": 2301, "fclass": "restaurant", "geo_code": "23", "name": "Heaping Plato", "osm_id": "3641409029"}, "geometry": {"type": "Point", "coordinates": [-93.6485053, 42.027171]}}, {"id": "10982", "type": "Feature", "properties": {"Attraction": "Food/Dining", "code": 2302, "fclass": "fast_food", "geo_code": "23", "name": "PepperJax Grill", "osm_id": "3754962145"}, "geometry": {"type": "Point", "coordinates": [-93.6094887, 42.0183523]}}, {"id": "10983", "type": "Feature", "properties": {"Attraction": "Food/Dining", "code": 2302, "fclass": "fast_food", "geo_code": "23", "name": "Subway", "osm_id": "3754996474"}, "geometry": {"type": "Point", "coordinates": [-93.6688261, 42.0217127]}}, {"id": "10985", "type": "Feature", "properties": {"Attraction": "Food/Dining", "code": 2301, "fclass": "restaurant", "geo_code": "23", "name": "Pizza Hut", "osm_id": "3755331494"}, "geometry": {"type": "Point", "coordinates": [-93.6184568, 42.0208]}}, {"id": "10986", "type": "Feature", "properties": {"Attraction": "Food/Dining", "code": 2302, "fclass": "fast_food", "geo_code": "23", "name": "Firehouse Subs", "osm_id": "3755332733"}, "geometry": {"type": "Point", "coordinates": [-93.6112181, 42.0150621]}}, {"id": "10989", "type": "Feature", "properties": {"Attraction": "Food/Dining", "code": 2301, "fclass": "restaurant", "geo_code": "23", "name": "Hu-Hot Mongolian BBQ", "osm_id": "3757235863"}, "geometry": {"type": "Point", "coordinates": [-93.6112313, 42.0153411]}}, {"id": "11125", "type": "Feature", "properties": {"Attraction": "Food/Dining", "code": 2302, "fclass": "fast_food", "geo_code": "23", "name": "Tropical Smoothie Cafe", "osm_id": "3872696416"}, "geometry": {"type": "Point", "coordinates": [-93.6177236, 42.0231358]}}, {"id": "11418", "type": "Feature", "properties": {"Attraction": "Food/Dining", "code": 2303, "fclass": "cafe", "geo_code": "23", "name": "Starbucks", "osm_id": "4162641133"}, "geometry": {"type": "Point", "coordinates": [-93.6466244, 42.0225983]}}, {"id": "12017", "type": "Feature", "properties": {"Attraction": "Food/Dining", "code": 2302, "fclass": "fast_food", "geo_code": "23", "name": "Panda Express", "osm_id": "4557102609"}, "geometry": {"type": "Point", "coordinates": [-93.6099096, 42.0176596]}}, {"id": "12134", "type": "Feature", "properties": {"Attraction": "Food/Dining", "code": 2301, "fclass": "restaurant", "geo_code": "23", "name": "Smokin' Oak Wood-Fired Pizza", "osm_id": "4629857755"}, "geometry": {"type": "Point", "coordinates": [-93.6491901, 42.0225948]}}, {"id": "12135", "type": "Feature", "properties": {"Attraction": "Food/Dining", "code": 2301, "fclass": "restaurant", "geo_code": "23", "name": "Blaze Pizza", "osm_id": "4629857756"}, "geometry": {"type": "Point", "coordinates": [-93.6478151, 42.0225993]}}, {"id": "12136", "type": "Feature", "properties": {"Attraction": "Food/Dining", "code": 2302, "fclass": "fast_food", "geo_code": "23", "name": "Potbelly", "osm_id": "4629857757"}, "geometry": {"type": "Point", "coordinates": [-93.6470317, 42.0225923]}}, {"id": "12677", "type": "Feature", "properties": {"Attraction": "Food/Dining", "code": 2302, "fclass": "fast_food", "geo_code": "23", "name": "Chick-fil-A", "osm_id": "4874245157"}, "geometry": {"type": "Point", "coordinates": [-93.6098338, 42.0204226]}}, {"id": "12711", "type": "Feature", "properties": {"Attraction": "Food/Dining", "code": 2301, "fclass": "restaurant", "geo_code": "23", "name": "Erbert and Gerbert's Sandwich Shop", "osm_id": "4919935588"}, "geometry": {"type": "Point", "coordinates": [-93.6663638, 42.0231213]}}, {"id": "12794", "type": "Feature", "properties": {"Attraction": "Food/Dining", "code": 2301, "fclass": "restaurant", "geo_code": "23", "name": "Aunt Maude's", "osm_id": "5064244865"}, "geometry": {"type": "Point", "coordinates": [-93.619074, 42.0252234]}}, {"id": "13252", "type": "Feature", "properties": {"Attraction": "Food/Dining", "code": 2302, "fclass": "fast_food", "geo_code": "23", "name": "Freddy's", "osm_id": "5441309241"}, "geometry": {"type": "Point", "coordinates": [-93.6493789, 42.0225891]}}, {"id": "13298", "type": "Feature", "properties": {"Attraction": "Food/Dining", "code": 2301, "fclass": "restaurant", "geo_code": "23", "name": "Wallaby's", "osm_id": "5491468022"}, "geometry": {"type": "Point", "coordinates": [-93.6454573, 42.0502584]}}, {"id": "13309", "type": "Feature", "properties": {"Attraction": "Food/Dining", "code": 2303, "fclass": "cafe", "geo_code": "23", "name": "Business Cafe", "osm_id": "5512180019"}, "geometry": {"type": "Point", "coordinates": [-93.6445671, 42.0251228]}}, {"id": "13500", "type": "Feature", "properties": {"Attraction": "Food/Dining", "code": 2302, "fclass": "fast_food", "geo_code": "23", "name": "Wingstop", "osm_id": "5801728337"}, "geometry": {"type": "Point", "coordinates": [-93.6112263, 42.0156762]}}, {"id": "13501", "type": "Feature", "properties": {"Attraction": "Food/Dining", "code": 2301, "fclass": "restaurant", "geo_code": "23", "name": "Jethro's", "osm_id": "5801732634"}, "geometry": {"type": "Point", "coordinates": [-93.6127055, 42.0113992]}}, {"id": "13503", "type": "Feature", "properties": {"Attraction": "Food/Dining", "code": 2302, "fclass": "fast_food", "geo_code": "23", "name": "Jimmy John's", "osm_id": "5801732636"}, "geometry": {"type": "Point", "coordinates": [-93.6220673, 42.049459]}}, {"id": "13504", "type": "Feature", "properties": {"Attraction": "Food/Dining", "code": 2301, "fclass": "restaurant", "geo_code": "23", "name": "Flame 'n' Skewer", "osm_id": "5801732637"}, "geometry": {"type": "Point", "coordinates": [-93.622196, 42.049463]}}, {"id": "15173", "type": "Feature", "properties": {"Attraction": "Food/Dining", "code": 2301, "fclass": "restaurant", "geo_code": "23", "name": "India Palace", "osm_id": "7531007839"}, "geometry": {"type": "Point", "coordinates": [-93.6515439, 42.0221062]}}, {"id": "15566", "type": "Feature", "properties": {"Attraction": "Food/Dining", "code": 2301, "fclass": "restaurant", "geo_code": "23", "name": "Clyde's", "osm_id": "7953269424"}, "geometry": {"type": "Point", "coordinates": [-93.6512591, 42.0248205]}}, {"id": "15567", "type": "Feature", "properties": {"Attraction": "Food/Dining", "code": 2301, "fclass": "restaurant", "geo_code": "23", "name": "Union Drive Marketplace", "osm_id": "7953269425"}, "geometry": {"type": "Point", "coordinates": [-93.6515207, 42.0250022]}}, {"id": "15568", "type": "Feature", "properties": {"Attraction": "Food/Dining", "code": 2301, "fclass": "restaurant", "geo_code": "23", "name": "Friley Windows", "osm_id": "7953269426"}, "geometry": {"type": "Point", "coordinates": [-93.6501567, 42.0241607]}}, {"id": "15688", "type": "Feature", "properties": {"Attraction": "Food/Dining", "code": 2303, "fclass": "cafe", "geo_code": "23", "name": "ABE Harvest Cafe", "osm_id": "8037915627"}, "geometry": {"type": "Point", "coordinates": [-93.6530054, 42.0274318]}}, {"id": "15689", "type": "Feature", "properties": {"Attraction": "Food/Dining", "code": 2303, "fclass": "cafe", "geo_code": "23", "name": "Bookends Cafe", "osm_id": "8037915628"}, "geometry": {"type": "Point", "coordinates": [-93.6488054, 42.0279314]}}, {"id": "15690", "type": "Feature", "properties": {"Attraction": "Food/Dining", "code": 2303, "fclass": "cafe", "geo_code": "23", "name": "Courtyard Cafe", "osm_id": "8037915629"}, "geometry": {"type": "Point", "coordinates": [-93.6456467, 42.0297393]}}, {"id": "15691", "type": "Feature", "properties": {"Attraction": "Food/Dining", "code": 2303, "fclass": "cafe", "geo_code": "23", "name": "Design Cafe", "osm_id": "8037915630"}, "geometry": {"type": "Point", "coordinates": [-93.6530042, 42.0285662]}}, {"id": "15692", "type": "Feature", "properties": {"Attraction": "Food/Dining", "code": 2303, "fclass": "cafe", "geo_code": "23", "name": "Gentle Doctor Cafe", "osm_id": "8037915631"}, "geometry": {"type": "Point", "coordinates": [-93.6323227, 42.0065482]}}, {"id": "15693", "type": "Feature", "properties": {"Attraction": "Food/Dining", "code": 2303, "fclass": "cafe", "geo_code": "23", "name": "Global Cafe", "osm_id": "8037915632"}, "geometry": {"type": "Point", "coordinates": [-93.644541, 42.026183]}}, {"id": "15694", "type": "Feature", "properties": {"Attraction": "Food/Dining", "code": 2303, "fclass": "cafe", "geo_code": "23", "name": "MU Market & Caf\u00e9", "osm_id": "8037915633"}, "geometry": {"type": "Point", "coordinates": [-93.6460042, 42.0233227]}}, {"id": "15697", "type": "Feature", "properties": {"Attraction": "Food/Dining", "code": 2301, "fclass": "restaurant", "geo_code": "23", "name": "Storms Dining", "osm_id": "8037915636"}, "geometry": {"type": "Point", "coordinates": [-93.6504802, 42.0151133]}}, {"id": "15698", "type": "Feature", "properties": {"Attraction": "Food/Dining", "code": 2301, "fclass": "restaurant", "geo_code": "23", "name": "Seasons Marketplace", "osm_id": "8037915637"}, "geometry": {"type": "Point", "coordinates": [-93.638235, 42.0240543]}}, {"id": "15700", "type": "Feature", "properties": {"Attraction": "Food/Dining", "code": 2301, "fclass": "restaurant", "geo_code": "23", "name": "Hawthorn", "osm_id": "8037915639"}, "geometry": {"type": "Point", "coordinates": [-93.64289, 42.0338722]}}, {"id": "15906", "type": "Feature", "properties": {"Attraction": "Food/Dining", "code": 2301, "fclass": "restaurant", "geo_code": "23", "name": "Cornbred Barbeque", "osm_id": "8395552560"}, "geometry": {"type": "Point", "coordinates": [-93.618279, 42.0244627]}}, {"id": "16033", "type": "Feature", "properties": {"Attraction": "Food/Dining", "code": 2301, "fclass": "restaurant", "geo_code": "23", "name": "Taste Place", "osm_id": "8530394473"}, "geometry": {"type": "Point", "coordinates": [-93.6503671, 42.020473]}}, {"id": "16034", "type": "Feature", "properties": {"Attraction": "Food/Dining", "code": 2305, "fclass": "bar", "geo_code": "23", "name": "Sips", "osm_id": "8530394477"}, "geometry": {"type": "Point", "coordinates": [-93.6499074, 42.0217407]}}, {"id": "16035", "type": "Feature", "properties": {"Attraction": "Food/Dining", "code": 2305, "fclass": "bar", "geo_code": "23", "name": "The One Night Stand", "osm_id": "8530394478"}, "geometry": {"type": "Point", "coordinates": [-93.6499144, 42.0218358]}}, {"id": "16037", "type": "Feature", "properties": {"Attraction": "Food/Dining", "code": 2303, "fclass": "cafe", "geo_code": "23", "name": "Tea Time", "osm_id": "8530394481"}, "geometry": {"type": "Point", "coordinates": [-93.6503339, 42.0224356]}}, {"id": "16038", "type": "Feature", "properties": {"Attraction": "Food/Dining", "code": 2302, "fclass": "fast_food", "geo_code": "23", "name": "Domino's", "osm_id": "8530394484"}, "geometry": {"type": "Point", "coordinates": [-93.6515402, 42.0219743]}}, {"id": "16041", "type": "Feature", "properties": {"Attraction": "Food/Dining", "code": 2303, "fclass": "cafe", "geo_code": "23", "name": "Big A\u00e7a\u00ed Bowls", "osm_id": "8530423265"}, "geometry": {"type": "Point", "coordinates": [-93.6544597, 42.0225573]}}, {"id": "16042", "type": "Feature", "properties": {"Attraction": "Food/Dining", "code": 2302, "fclass": "fast_food", "geo_code": "23", "name": "Which Wich?", "osm_id": "8530423266"}, "geometry": {"type": "Point", "coordinates": [-93.6548559, 42.0225553]}}, {"id": "16065", "type": "Feature", "properties": {"Attraction": "Food/Dining", "code": 2303, "fclass": "cafe", "geo_code": "23", "name": "Cabin Coffee Co.", "osm_id": "8544987941"}, "geometry": {"type": "Point", "coordinates": [-93.5765224, 42.035126]}}]}